$GNGGA,185815.00,5141.76777293,N,00517.51758218,E,5,23,0.6,8.4491,M,44.5531,M,02,0*48
$GNZDA,185815.00,20,04,2023,,*7D
$GNGSA,M,3,03,04,21,17,19,08,28,01,,,,,1.0,0.6,0.7,1*34
$GNGSA,M,3,71,85,,,,,,,,,,,1.0,0.6,0.7,2*35
$GNGSA,M,3,04,11,12,36,30,10,,,,,,,1.0,0.6,0.7,3*3F
$GNGSA,M,3,29,35,19,09,05,30,20,,,,,,1.0,0.6,0.7,4*30
$GNRMC,185815.00,A,5141.76777293,N,00517.51758218,E,1.684,317.0,200423,2.1,E,F,V*55
$GNGST,185815.00,0.79,1.26,1.05,47.8043,0.765,0.779,1.173*73
$INS.NAVI,185814.800,0.000000000,0.000000000,0.000000000,0.000000,0.000000,0.000000,0.209361,0.124276,1.357481,-1.000000,0.060400,-0.185993,-0.042520,0.006233,-0.014032,0.005559,42.391304,1026,001C0001*2B
$INS.NAVI,185815.000,0.000000000,0.000000000,0.000000000,0.000000,0.000000,0.000000,0.161659,0.155015,1.549573,-1.000000,0.060400,-0.185993,-0.042520,0.006246,-0.014034,0.005582,42.391304,1026,001C0001*27
$INS.NAVI,185815.200,0.000000000,0.000000000,0.000000000,0.000000,0.000000,0.000000,0.171276,0.170800,1.775442,-1.000000,0.060400,-0.185993,-0.042520,0.006272,-0.014015,0.005604,42.391304,1026,001C0001*21
$INS.NAVI,185815.400,0.000000000,0.000000000,0.000000000,0.000000,0.000000,0.000000,0.155528,0.152565,2.234337,-1.000000,0.060400,-0.185993,-0.042520,0.006281,-0.013992,0.005625,42.391304,1026,001C0001*2B
$INS.NAVI,185815.600,0.000000000,0.000000000,0.000000000,0.000000,0.000000,0.000000,0.165774,0.170657,2.669852,-1.000000,0.060400,-0.185993,-0.042520,0.006259,-0.013983,0.005645,42.391304,1026,001C0001*24
$GNGGA,185816.00,5141.76823145,N,00517.51701687,E,5,18,0.9,8.4472,M,44.5531,M,02,0*49
$GNZDA,185816.00,20,04,2023,,*7E
$GNGSA,M,3,03,04,17,19,08,01,,,,,,,1.2,0.9,0.8,1*3F
$GNGSA,M,3,71,85,,,,,,,,,,,1.2,0.9,0.8,2*37
$GNGSA,M,3,04,11,36,30,10,,,,,,,,1.2,0.9,0.8,3*3E
$GNGSA,M,3,29,35,19,30,20,,,,,,,,1.2,0.9,0.8,4*3E
$GNRMC,185816.00,A,5141.76823145,N,00517.51701687,E,2.103,303.7,200423,2.1,E,F,V*57
$GNGST,185816.00,2.13,1.26,1.05,48.2505,0.765,0.781,1.187*70
$INS.NAVI,185815.800,0.000000000,0.000000000,0.000000000,0.000000,0.000000,0.000000,0.125895,0.119946,2.886966,-1.000000,0.060400,-0.185993,-0.042520,0.006256,-0.013993,0.005676,42.391304,1026,001C0001*29
$INS.NAVI,185816.000,0.000000000,0.000000000,0.000000000,0.000000,0.000000,0.000000,0.141015,0.169732,2.879389,-1.000000,0.060400,-0.185993,-0.042520,0.006247,-0.013986,0.005706,42.391304,1026,001C0001*23
$INS.NAVI,185816.200,0.000000000,0.000000000,0.000000000,0.000000,0.000000,0.000000,0.178271,0.171473,2.829031,-1.000000,0.060400,-0.185993,-0.042520,0.006244,-0.013980,0.005724,42.391304,1026,001C0001*24
$INS.NAVI,185816.400,0.000000000,0.000000000,0.000000000,0.000000,0.000000,0.000000,0.167401,0.151386,2.660192,-1.000000,0.060400,-0.185993,-0.042520,0.006245,-0.013978,0.005731,42.391304,1026,001C0001*2B
$INS.NAVI,185816.600,0.000000000,0.000000000,0.000000000,0.000000,0.000000,0.000000,0.234040,0.200859,2.477904,-1.000000,0.060400,-0.185993,-0.042520,0.006251,-0.013974,0.005732,42.391304,1026,001C0001*2A
$GNGGA,185817.00,5141.76860239,N,00517.51650565,E,5,19,0.9,8.3094,M,44.5531,M,02,0*47
$GNZDA,185817.00,20,04,2023,,*7F
$GNGSA,M,3,03,04,17,19,08,01,,,,,,,1.2,0.9,0.8,1*3F
$GNGSA,M,3,71,85,,,,,,,,,,,1.2,0.9,0.8,2*37
$GNGSA,M,3,04,11,10,30,02,36,,,,,,,1.2,0.9,0.8,3*3C
$GNGSA,M,3,29,35,19,30,20,,,,,,,,1.2,0.9,0.8,4*3E
$GNRMC,185817.00,A,5141.76860239,N,00517.51650565,E,1.615,332.1,200423,2.1,E,F,V*54
$GNGST,185817.00,0.67,1.25,1.04,48.8383,0.759,0.777,1.169*76
$INS.NAVI,185816.800,0.000000000,0.000000000,0.000000000,0.000000,0.000000,0.000000,0.197603,0.240321,2.261867,-1.000000,0.060400,-0.185993,-0.042520,0.006250,-0.013973,0.005731,42.391304,1026,001C0001*2F
#REFSTATIONA,COM2,0,79.0,FINE,2258,413912.000,609190,1608,18;00000000,3924698.116,301124.804,5001904.995,0,RTCMV3,"0000"*5e8eaa3b
$GPGSV,3,1,09,01,75,112,43,03,67,251,46,04,18,186,40,21,51,124,38,1*62
$GPGSV,3,2,09,17,43,296,45,19,22,316,42,08,04,169,35,28,16,078,26,1*69
$GPGSV,3,3,09,22,00,000,36,1*58
$GPGSV,3,1,09,01,75,112,39,03,67,251,43,04,18,186,42,21,51,124,33,4*66
$GPGSV,3,2,09,17,43,296,40,19,22,316,37,08,04,169,37,22,00,000,31,4*6D
$GPGSV,3,3,09,32,19,042,25,4*50
$GPGSV,1,1,04,01,75,112,34,03,67,251,39,04,18,186,35,08,04,169,32,8*66
$GLGSV,1,1,04,86,58,316,47,71,40,209,43,85,69,139,43,78,10,008,41,1*7B
$GLGSV,1,1,04,86,58,316,44,71,40,209,41,85,69,139,39,78,10,008,41,3*75
$GBGSV,2,1,08,29,62,185,46,35,46,298,46,20,78,104,44,19,41,218,44,1*77
$GBGSV,2,2,08,09,32,073,31,32,25,054,30,05,14,119,31,30,14,150,36,1*78
$GBGSV,2,1,06,29,62,185,45,35,46,298,45,20,78,104,43,19,41,218,42,3*7A
$GBGSV,2,2,06,32,25,054,25,30,14,150,35,3*76
$GBGSV,1,1,04,29,62,185,36,35,46,298,35,20,78,104,34,19,41,218,37,5*7C
$GBGSV,2,1,08,29,62,185,41,35,46,298,43,20,78,104,39,19,41,218,41,8*73
$GBGSV,2,2,08,09,32,073,27,32,25,054,26,05,14,119,28,30,14,150,34,8*7B
$GBGSV,1,1,02,09,32,073,27,05,14,119,34,B*00
$GAGSV,2,1,06,04,52,157,33,11,79,299,31,10,69,118,32,12,42,119,24,1*73
$GAGSV,2,2,06,36,27,299,35,30,06,345,29,1*7B
$GAGSV,2,1,07,04,52,157,39,11,79,299,38,10,69,118,39,12,42,119,31,2*7D
$GAGSV,2,2,07,36,27,299,42,30,06,345,38,02,12,296,30,2*46
$GAGSV,2,1,06,04,52,157,43,11,79,299,41,10,69,118,42,12,42,119,32,7*75
$GAGSV,2,2,06,36,27,299,43,30,06,345,38,7*7C
$INS.NAVI,185817.000,0.000000000,0.000000000,0.000000000,0.000000,0.000000,0.000000,0.207705,0.536445,2.264804,-1.000000,0.060400,-0.185993,-0.042520,0.006250,-0.013973,0.005737,42.391304,1026,001C0001*2E
$INS.NAVI,185817.200,0.000000000,0.000000000,0.000000000,0.000000,0.000000,0.000000,0.338887,0.509172,2.640470,-1.000000,0.060400,-0.185993,-0.042520,0.006248,-0.013978,0.005782,42.391304,1026,001C0001*28
$INS.NAVI,185817.400,0.000000000,0.000000000,0.000000000,0.000000,0.000000,0.000000,0.330265,0.498148,2.532019,-1.000000,0.060400,-0.185993,-0.042520,0.006239,-0.013968,0.005827,42.391304,1026,001C0001*2A
$INS.NAVI,185817.600,0.000000000,0.000000000,0.000000000,0.000000,0.000000,0.000000,0.289301,0.428166,2.381978,-1.000000,0.060400,-0.185993,-0.042520,0.006243,-0.013967,0.005876,42.391304,1026,001C0001*29
$GNGGA,185818.00,5141.76903913,N,00517.51577888,E,5,15,1.3,8.4084,M,44.5531,M,03,0*47
$GNZDA,185818.00,20,04,2023,,*70
$GNGSA,M,3,04,17,19,08,03,,,,,,,,1.7,1.3,1.1,1*38
$GNGSA,M,3,85,71,,,,,,,,,,,1.7,1.3,1.1,2*31
$GNGSA,M,3,04,11,10,36,,,,,,,,,1.7,1.3,1.1,3*3B
$GNGSA,M,3,29,35,19,20,,,,,,,,,1.7,1.3,1.1,4*3B
$GNRMC,185818.00,A,5141.76903913,N,00517.51577888,E,1.876,303.4,200423,2.1,E,F,V*58
$GNGST,185818.00,2.58,1.25,1.04,49.7181,0.757,0.779,1.173*72
$INS.NAVI,185817.800,0.000000000,0.000000000,0.000000000,0.000000,0.000000,0.000000,0.251500,0.316570,2.164140,-1.000000,0.060400,-0.185993,-0.042520,0.006249,-0.013960,0.005924,42.391304,1026,001C0001*2D
$INS.NAVI,185818.000,0.000000000,0.000000000,0.000000000,0.000000,0.000000,0.000000,0.280965,0.288005,2.143594,-1.000000,0.060400,-0.185993,-0.042520,0.006250,-0.013969,0.005975,42.391304,1026,001C0001*25
$INS.NAVI,185818.200,0.000000000,0.000000000,0.000000000,0.000000,0.000000,0.000000,0.355490,0.118038,2.281542,-1.000000,0.060400,-0.185993,-0.042520,0.006250,-0.013969,0.006030,42.391304,1026,001C0001*20
$INS.NAVI,185818.400,0.000000000,0.000000000,0.000000000,0.000000,0.000000,0.000000,0.342594,0.093386,2.525197,-1.000000,0.060400,-0.185993,-0.042520,0.006257,-0.013981,0.006093,42.391304,1026,001C0001*2C
$INS.NAVI,185818.600,0.000000000,0.000000000,0.000000000,0.000000,0.000000,0.000000,0.285262,0.009947,2.736512,-1.000000,0.060400,-0.185993,-0.042520,0.006261,-0.013958,0.006153,42.391304,1026,001C0001*2B
$GNGGA,185819.00,5141.76964611,N,00517.51501841,E,5,10,2.0,8.4645,M,44.5531,M,02,0*41
$GNZDA,185819.00,20,04,2023,,*71
$GNGSA,M,3,04,17,19,08,03,,,,,,,,2.4,2.0,1.2,1*3B
$GNGSA,M,3,04,36,,,,,,,,,,,2.4,2.0,1.2,3*39
$GNGSA,M,3,35,19,29,,,,,,,,,,2.4,2.0,1.2,4*3A
$GNRMC,185819.00,A,5141.76964611,N,00517.51501841,E,2.485,333.8,200423,2.1,E,F,V*5D
$GNGST,185819.00,3.33,1.30,1.04,51.7306,0.765,0.805,1.186*70
$INS.NAVI,185818.800,0.000000000,0.000000000,0.000000000,0.000000,0.000000,0.000000,0.223964,-0.075404,2.936560,-1.000000,0.060400,-0.185993,-0.042520,0.006258,-0.013946,0.006222,42.391304,1026,001C0001*03
$INS.NAVI,185819.000,0.000000000,0.000000000,0.000000000,0.000000,0.000000,0.000000,0.292292,0.008949,2.842063,-1.000000,0.060400,-0.185993,-0.042520,0.006249,-0.013933,0.006294,42.391304,1026,001C0001*2A
$INS.NAVI,185819.200,0.000000000,0.000000000,0.000000000,0.000000,0.000000,0.000000,0.324556,0.042542,2.724867,-1.000000,0.060400,-0.185993,-0.042520,0.006246,-0.013923,0.006371,42.391304,1026,001C0001*25
$INS.NAVI,185819.400,0.000000000,0.000000000,0.000000000,0.000000,0.000000,0.000000,0.280594,-0.025051,2.694608,-1.000000,0.060400,-0.185993,-0.042520,0.006243,-0.013936,0.006453,42.391304,1026,001C0001*02
$INS.NAVI,185819.600,0.000000000,0.000000000,0.000000000,0.000000,0.000000,0.000000,0.272614,-0.056049,2.843158,-1.000000,0.060400,-0.185993,-0.042520,0.006244,-0.013944,0.006537,42.391304,1026,001C0001*0C
$GNGGA,185820.00,5141.77022249,N,00517.51445364,E,5,12,1.0,8.5465,M,44.5531,M,03,0*44
$GNZDA,185820.00,20,04,2023,,*7B
$GNGSA,M,3,01,04,17,03,,,,,,,,,1.6,1.0,1.3,1*39
$GNGSA,M,3,78,71,,,,,,,,,,,1.6,1.0,1.3,2*33
$GNGSA,M,3,04,10,36,,,,,,,,,,1.6,1.0,1.3,3*3B
$GNGSA,M,3,35,19,29,,,,,,,,,,1.6,1.0,1.3,4*39
$GNRMC,185820.00,A,5141.77022249,N,00517.51445364,E,2.352,330.4,200423,2.1,E,F,V*5B
$GNGST,185820.00,2.85,1.23,1.04,50.3769,0.747,0.771,1.179*70
$INS.NAVI,185819.800,0.000000000,0.000000000,0.000000000,0.000000,0.000000,0.000000,0.262258,-0.012635,2.943656,-1.000000,0.060400,-0.185993,-0.042520,0.006237,-0.013929,0.006621,42.391304,1026,001C0001*01
$INS.NAVI,185820.000,0.000000000,0.000000000,0.000000000,0.000000,0.000000,0.000000,0.267244,-0.043002,2.943935,-1.000000,0.060400,-0.185993,-0.042520,0.006238,-0.013929,0.006717,42.391304,1026,001C0001*0C
$INS.NAVI,185820.200,0.000000000,0.000000000,0.000000000,0.000000,0.000000,0.000000,0.278985,0.032130,2.884185,-1.000000,0.060400,-0.185993,-0.042520,0.006235,-0.013922,0.006810,42.391304,1026,001C0001*2A
$INS.NAVI,185820.400,0.000000000,0.000000000,0.000000000,0.000000,0.000000,0.000000,0.306495,0.043834,2.851358,-1.000000,0.060400,-0.185993,-0.042520,0.006233,-0.013912,0.006905,42.391304,1026,001C0001*29
$INS.NAVI,185820.600,0.000000000,0.000000000,0.000000000,0.000000,0.000000,0.000000,0.299695,-0.008738,2.965837,-1.000000,0.060400,-0.185993,-0.042520,0.006235,-0.013923,0.007019,42.391304,1026,001C0001*0A
$GNGGA,185821.00,5141.77086390,N,00517.51405616,E,5,13,1.0,8.5546,M,44.5530,M,02,0*4B
$GNZDA,185821.00,20,04,2023,,*7A
$GNGSA,M,3,03,04,17,01,,,,,,,,,1.5,1.0,1.1,1*38
$GNGSA,M,3,78,71,,,,,,,,,,,1.5,1.0,1.1,2*32
$GNGSA,M,3,10,36,02,11,,,,,,,,,1.5,1.0,1.1,3*3C
$GNGSA,M,3,35,19,29,,,,,,,,,,1.5,1.0,1.1,4*38
$GNRMC,185821.00,A,5141.77086390,N,00517.51405616,E,2.449,338.4,200423,2.1,E,F,V*50
$GNGST,185821.00,3.11,1.23,1.03,50.0082,0.745,0.767,1.179*7E
$INS.NAVI,185820.800,0.000000000,0.000000000,0.000000000,0.000000,0.000000,0.000000,0.288685,0.005288,3.108161,-1.000000,0.060400,-0.185993,-0.042520,0.006235,-0.013923,0.007139,42.391304,1026,001C0001*20
$INS.NAVI,185821.000,0.000000000,0.000000000,0.000000000,0.000000,0.000000,0.000000,0.280600,0.035766,-3.046148,-1.000000,0.060400,-0.185993,-0.042520,0.006230,-0.013912,0.007274,42.391304,1026,001C0001*0A
$INS.NAVI,185821.200,0.000000000,0.000000000,0.000000000,0.000000,0.000000,0.000000,0.279361,0.019890,-3.060631,-1.000000,0.060400,-0.185993,-0.042520,0.006232,-0.013902,0.007421,42.391304,1026,001C0001*0C
$INS.NAVI,185821.400,0.000000000,0.000000000,0.000000000,0.000000,0.000000,0.000000,0.285651,0.083126,3.138170,-1.000000,0.060400,-0.185993,-0.042520,0.006223,-0.013891,0.007551,42.391304,1026,001C0001*26
$INS.NAVI,185821.600,0.000000000,0.000000000,0.000000000,0.000000,0.000000,0.000000,0.268376,0.098669,3.137890,-1.000000,0.060400,-0.185993,-0.042520,0.006216,-0.013886,0.007678,42.391304,1026,001C0001*21
$GNGGA,185822.00,5141.77132436,N,00517.51357525,E,5,13,1.0,8.4587,M,44.5531,M,02,0*43
$GNZDA,185822.00,20,04,2023,,*79
$GNGSA,M,3,03,04,01,,,,,,,,,,1.5,1.0,1.1,1*3E
$GNGSA,M,3,85,78,71,,,,,,,,,,1.5,1.0,1.1,2*3F
$GNGSA,M,3,10,36,02,11,,,,,,,,,1.5,1.0,1.1,3*3C
$GNGSA,M,3,35,19,29,,,,,,,,,,1.5,1.0,1.1,4*38
$GNRMC,185822.00,A,5141.77132436,N,00517.51357525,E,2.733,342.5,200423,2.1,E,F,V*57
$GNGST,185822.00,4.17,1.36,1.05,38.9128,0.830,0.787,1.175*77
$INS.NAVI,185821.800,0.000000000,0.000000000,0.000000000,0.000000,0.000000,0.000000,0.325925,0.076688,-2.968211,-1.000000,0.060400,-0.185993,-0.042520,0.006217,-0.013905,0.007879,42.391304,1026,001C0001*0D
#REFSTATIONA,COM2,0,86.0,FINE,2258,413918.000,614790,1008,18;00000000,3924698.116,301124.804,5001904.995,0,RTCMV3,"0000"*4d7ccd06
$GPGSV,3,1,09,01,75,112,40,03,67,251,42,04,18,186,36,21,51,124,30,1*6C
$GPGSV,3,2,09,17,43,296,43,19,22,316,36,08,04,169,26,28,16,078,30,1*69
$GPGSV,3,3,09,22,00,000,26,1*59
$GPGSV,2,1,06,01,75,112,34,03,67,251,38,04,18,186,37,17,43,296,35,4*61
$GPGSV,2,2,06,19,22,316,30,08,04,169,29,4*61
$GPGSV,1,1,04,01,75,112,32,03,67,251,37,04,18,186,34,08,04,169,27,8*6B
$GLGSV,2,1,05,69,18,038,33,86,58,316,45,71,40,209,40,85,69,139,39,1*7B
$GLGSV,2,2,05,78,10,008,41,1*4E
$GLGSV,1,1,04,86,58,316,38,71,40,209,38,85,69,139,33,78,10,008,37,3*7B
$GBGSV,2,1,06,29,62,185,41,35,46,298,45,20,78,104,41,19,4,06,345,30,02,12,296,36,7*78
$INS.NAVI,185822.000,0.000000000,0.000000000,0.000000000,0.000000,0.000000,0.000000,0.411487,0.084960,-2.877425,-1.000000,0.060400,-0.185993,-0.042520,0.006215,-0.013900,0.007910,42.391304,1026,001C0001*00
$INS.NAVI,185822.200,0.000000000,0.000000000,0.000000000,0.000000,0.000000,0.000000,0.360051,0.112399,-2.848825,-1.000000,0.060400,-0.185993,-0.042520,0.006201,-0.013888,0.007925,42.391304,1026,001C0001*0C
$INS.NAVI,185822.400,0.000000000,0.000000000,0.000000000,0.000000,0.000000,0.000000,0.269134,0.065696,-2.855488,-1.000000,0.060400,-0.185993,-0.042520,0.006203,-0.013887,0.007965,42.391304,1026,001C0001*05
$INS.NAVI,185822.600,0.000000000,0.000000000,0.000000000,0.000000,0.000000,0.000000,0.299932,0.092129,-2.971041,-1.000000,0.060400,-0.185993,-0.042520,0.006202,-0.013880,0.008027,42.391304,1026,001C0001*0D
$GNGGA,185823.00,5141.77192944,N,00517.51317872,E,5,14,1.3,8.5061,M,44.5530,M,01,0*41
$GNZDA,185823.00,20,04,2023,,*78
$GNGSA,M,3,03,04,17,19,01,,,,,,,,1.7,1.3,1.1,1*31
$GNGSA,M,3,10,36,02,11,,,,,,,,,1.7,1.3,1.1,3*3D
$GNGSA,M,3,29,35,19,30,20,,,,,,,,1.7,1.3,1.1,4*38
$GNRMC,185823.00,A,5141.77192944,N,00517.51317872,E,2.632,343.8,200423,2.1,E,F,V*53
$GNGST,185823.00,4.50,1.34,1.04,40.9650,0.813,0.785,1.165*73
$INS.NAVI,185822.800,0.000000000,0.000000000,0.000000000,0.000000,0.000000,0.000000,0.317301,0.121971,-3.076658,-1.000000,0.060400,-0.185993,-0.042520,0.006197,-0.013880,0.008093,42.391304,1026,001C0001*03
$INS.NAVI,185823.000,0.000000000,0.000000000,0.000000000,0.000000,0.000000,0.000000,0.259437,0.037421,-2.846825,-1.000000,0.060400,-0.185993,-0.042520,0.006200,-0.013898,0.008137,42.391304,1026,001C0001*08
$INS.NAVI,185823.200,0.000000000,0.000000000,0.000000000,0.000000,0.000000,0.000000,0.283561,0.034137,-2.648050,-1.000000,0.060400,-0.185993,-0.042520,0.006198,-0.013886,0.008096,42.391304,1026,001C0001*03
$INS.NAVI,185823.400,0.000000000,0.000000000,0.000000000,0.000000,0.000000,0.000000,0.259008,0.060017,-2.566075,-1.000000,0.060400,-0.185993,-0.042520,0.006190,-0.013881,0.008028,42.391304,1026,001C0001*08
$INS.NAVI,185823.600,0.000000000,0.000000000,0.000000000,0.000000,0.000000,0.000000,0.215183,0.035751,-2.671715,-1.000000,0.060400,-0.185993,-0.042520,0.006192,-0.013883,0.008036,42.391304,1026,001C0001*0E
$GNGGA,185824.00,5141.77257071,N,00517.51279482,E,5,14,1.3,8.5285,M,44.5530,M,02,0*42
$GNZDA,185824.00,20,04,2023,,*7F
$GNGSA,M,3,03,04,17,01,,,,,,,,,1.8,1.3,1.2,1*35
$GNGSA,M,3,04,10,36,02,11,,,,,,,,1.8,1.3,1.2,3*35
$GNGSA,M,3,29,35,19,30,20,,,,,,,,1.8,1.3,1.2,4*34
$GNRMC,185824.00,A,5141.77257071,N,00517.51279482,E,2.424,350.4,200423,2.1,E,F,V*50
$GNGST,185824.00,3.56,1.34,1.03,40.7854,0.811,0.781,1.167*72
$INS.NAVI,185823.800,0.000000000,0.000000000,0.000000000,0.000000,0.000000,0.000000,0.220987,0.064996,-2.815221,-1.000000,0.060400,-0.185993,-0.042520,0.006185,-0.013868,0.008087,42.391304,1026,001C0001*0C
$INS.NAVI,185824.000,0.000000000,0.000000000,0.000000000,0.000000,0.000000,0.000000,0.211005,0.054876,-2.803674,-1.000000,0.060400,-0.185993,-0.042520,0.006191,-0.013868,0.008121,42.391304,1026,001C0001*05
$INS.NAVI,185824.200,0.000000000,0.000000000,0.000000000,0.000000,0.000000,0.000000,0.196887,-0.032651,-2.690447,-1.000000,0.060400,-0.185993,-0.042520,0.006193,-0.013883,0.008126,42.391304,1026,001C0001*29
$SYDL,49*23
$INS.NAVI,185824.400,0.000000000,0.000000000,0.000000000,0.000000,0.000000,0.000000,0.190185,0.003343,-2.517318,-1.000000,0.060400,-0.185993,-0.042520,0.006180,-0.013872,0.008122,42.391304,1026,001C0001*02
$INS.NAVI,185824.600,0.000000000,0.000000000,0.000000000,0.000000,0.000000,0.000000,0.208720,-0.005999,-2.496922,-1.000000,0.060400,-0.185993,-0.042520,0.006179,-0.013869,0.008051,42.391304,1026,001C0001*2F
$GNGGA,185825.00,5141.77327819,N,00517.51238566,E,5,15,1.2,8.5252,M,44.5530,M,01,0*44
$GNZDA,185825.00,20,04,2023,,*7E
$GNGSA,M,3,03,04,17,19,01,,,,,,,,1.7,1.2,1.1,1*30
$GNGSA,M,3,04,10,36,02,11,,,,,,,,1.7,1.2,1.1,3*38
$GNGSA,M,3,29,35,19,30,20,,,,,,,,1.7,1.2,1.1,4*39
$GNRMC,185825.00,A,5141.77327819,N,00517.51238566,E,2.242,336.3,200423,2.1,E,F,V*5E
$GNGST,185825.00,2.13,1.32,1.03,41.3196,0.802,0.777,1.152*7A
$INS.NAVI,185824.800,0.000000000,0.000000000,0.000000000,0.000000,0.000000,0.000000,0.248426,0.017744,-2.619780,-1.000000,0.060400,-0.185993,-0.042520,0.006180,-0.013865,0.008035,42.391304,1026,001C0001*0B
$INS.NAVI,185825.000,0.000000000,0.000000000,0.000000000,0.000000,0.000000,0.000000,0.305966,0.055943,-2.623291,-1.000000,0.060400,-0.185993,-0.042520,0.006181,-0.013851,0.007994,42.391304,1026,001C0001*0B
$INS.NAVI,185825.200,0.000000000,0.000000000,0.000000000,0.000000,0.000000,0.000000,0.290545,0.014861,-2.473473,-1.000000,0.060400,-0.185993,-0.042520,0.006181,-0.013865,0.007931,42.391304,1026,001C0001*08
$INS.NAVI,185825.400,0.000000000,0.000000000,0.000000000,0.000000,0.000000,0.000000,0.267315,-0.021914,-2.311233,-1.000000,0.060400,-0.185993,-0.042520,0.006179,-0.013861,0.007852,42.391304,1026,001C0001*2B
$INS.NAVI,185825.600,0.000000000,0.000000000,0.000000000,0.000000,0.000000,0.000000,0.297920,0.039727,-2.268820,-1.000000,0.060400,-0.185993,-0.042520,0.006174,-0.013842,0.007795,42.391304,1026,001C0001*0F
$GNGGA,185826.00,5141.77399036,N,00517.51195786,E,5,09,2.1,8.4340,M,44.5530,M,02,0*42
$GNZDA,185826.00,20,04,2023,,*7D
$GNGSA,M,3,03,01,,,,,,,,,,,4.1,2.1,3.6,1*3C
$GNGSA,M,3,10,36,11,,,,,,,,,,4.1,2.1,3.6,3*38
$GNGSA,M,3,29,35,19,20,,,,,,,,,4.1,2.1,3.6,4*3C
$GNRMC,185826.00,A,5141.77399036,N,00517.51195786,E,2.115,337.1,200423,2.1,E,F,V*57
$GNGST,185826.00,1.99,1.32,1.03,41.1569,0.802,0.777,1.191*71
$INS.NAVI,185825.800,0.000000000,0.000000000,0.000000000,0.000000,0.000000,0.000000,0.259066,0.035273,-2.388774,-1.000000,0.060400,-0.185993,-0.042520,0.006173,-0.013841,0.007833,42.391304,1026,001C0001*06
$INS.NAVI,185826.000,0.000000000,0.000000000,0.000000000,0.000000,0.000000,0.000000,0.251360,0.067884,-2.541269,-1.000000,0.060400,-0.185993,-0.042520,0.006173,-0.013834,0.007893,42.391304,1026,001C0001*07
$INS.NAVI,185826.200,0.000000000,0.000000000,0.000000000,0.000000,0.000000,0.000000,0.281961,0.009855,-2.541646,-1.000000,0.060400,-0.185993,-0.042520,0.006175,-0.013836,0.007943,42.391304,1026,001C0001*06
$INS.NAVI,185826.400,0.000000000,0.000000000,0.000000000,0.000000,0.000000,0.000000,0.270171,-0.013944,-2.530586,-1.000000,0.060400,-0.185993,-0.042520,0.006174,-0.013848,0.007984,42.391304,1026,001C0001*2A
$INS.NAVI,185826.600,0.000000000,0.000000000,0.000000000,0.000000,0.000000,0.000000,0.279553,0.042198,-2.388607,-1.000000,0.060400,-0.185993,-0.042520,0.006181,-0.013835,0.007991,42.391304,1026,001C0001*0E
$GNGGA,185827.00,5141.77470126,N,00517.51157258,E,5,10,2.0,8.5518,M,44.5530,M,02,0*48
$GNZDA,185827.00,20,04,2023,,*7C
$GNGSA,M,3,03,17,01,,,,,,,,,,4.1,2.0,3.5,1*38
$GNGSA,M,3,10,36,11,,,,,,,,,,4.1,2.0,3.5,3*3A
$GNGSA,M,3,29,35,19,20,,,,,,,,,4.1,2.0,3.5,4*3E
$GNRMC,185827.00,A,5141.77470126,N,00517.51157258,E,2.981,335.4,200423,2.1,E,F,V*5C
$GNGST,185827.00,1.62,1.35,1.04,38.4894,0.824,0.778,1.579*79
#REFSTATIONA,COM2,0,87.0,FINE,2258,413922.000,618390,2408,18;00000000,3924698.116,301124.804,5001904.995,0,RTCMV3,"0000"*1cfa5d91
$INS.NAVI,185826.800,0.000000000,0.000000000,0.000000000,0.000000,0.000000,0.000000,0.160572,0.050316,-2.416390,-1.000000,0.060400,-0.185993,-0.042520,0.006184,-0.013835,0.008018,42.391304,1026,001C0001*06
$GPGSV,2,1,08,01,75,112,41,03,67,251,44,04,18,186,34,21,50,124,34,1*6C
$GPGSV,2,2,08,17,43,296,43,19,22,316,35,28,16,078,27,22,00,000,41,1*6F
$GPGSV,2,1,05,01,75,112,36,03,67,251,37,04,18,186,32,17,43,296,31,4*6E
$GPGSV,2,2,05,19,22,316,27,4*5D
$GPGSV,1,1,03,01,75,112,33,03,67,251,36,04,18,186,29,8*57
$GLGSV,2,1,05,69,18,038,34,86,58,316,44,71,40,209,39,85,69,139,42,1*7F
$GLGSV,2,2,05,78,10,008,39,1*41
$GLGSV,1,1,04,86,58,316,37,71,40,209,39,85,69,139,34,78,10,008,31,3*74
$GBGSV,2,1,07,29,62,185,40,35,46,298,43,20,78,104,42,16,27,049,35,1*72
$GBGSV,2,2,07,19,42,218,40,32,25,054,38,05,14,119,23,1*44
$GBGSV,2,1,05,29,62,185,39,35,46,298,42,20,78,104,41,19,42,218,39,3*78
$GBGSV,2,2,05,30,14,150,29,3*48
$GBGSV,1,1,04,29,62,185,29,35,46,298,36,20,78,104,33,19,42,218,34,5*76
$GBGSV,2,1,05,29,62,185,34,35,46,298,40,20,78,104,37,19,42,218,39,8*7D
$GBGSV,2,2,05,30,14,150,28,8*42
$GBGSV,1,1,03,16,27,049,34,09,32,073,32,05,14,119,26,B*3E
$GAGSV,2,1,05,04,52,156,24,11,79,299,30,10,69,119,32,36,28,299,38,1*7B
$GAGSV,2,2,05,02,12,296,27,1*49
$GAGSV,2,1,06,04,52,156,27,11,79,299,34,10,69,119,35,12,42,119,23,2*70
$GAGSV,2,2,06,36,28,299,43,02,12,296,37,2*72
$GAGSV,2,1,06,04,52,156,34,11,79,299,37,10,69,119,39,36,28,299,36,7*7D
$GAGSV,2,2,06,30,06,345,29,02,12,296,36,7*70
$INS.NAVI,185827.000,0.000000000,0.000000000,0.000000000,0.000000,0.000000,0.000000,0.210574,0.101637,-2.576128,-1.000000,0.060400,-0.185993,-0.042520,0.006180,-0.013829,0.008072,42.391304,1026,001C0001*0D
$INS.NAVI,185827.200,0.000000000,0.000000000,0.000000000,0.000000,0.000000,0.000000,0.254538,0.093965,-2.647747,-1.000000,0.060400,-0.185993,-0.042520,0.006176,-0.013825,0.008145,42.342995,1026,001C0001*07
$INS.NAVI,185827.400,0.000000000,0.000000000,0.000000000,0.000000,0.000000,0.000000,0.246770,0.019839,-2.579850,-1.000000,0.060400,-0.185993,-0.042520,0.006174,-0.013837,0.008228,42.391304,1026,001C0001*04
$INS.NAVI,185827.600,0.000000000,0.000000000,0.000000000,0.000000,0.000000,0.000000,0.216743,0.085344,-2.591371,-1.000000,0.060400,-0.185993,-0.042520,0.006171,-0.013834,0.008284,42.391304,1026,001C0001*09
$GNGGA,185828.00,5141.77525257,N,00517.51098972,E,5,13,1.6,8.6586,M,44.5529,M,02,0*48
$GNZDA,185828.00,20,04,2023,,*73
$GNGSA,M,3,01,17,03,,,,,,,,,,2.8,1.6,2.3,1*35
$GNGSA,M,3,85,71,,,,,,,,,,,2.8,1.6,2.3,2*39
$GNGSA,M,3,11,36,02,10,,,,,,,,,2.8,1.6,2.3,3*35
$GNGSA,M,3,29,35,19,20,,,,,,,,,2.8,1.6,2.3,4*33
$GNRMC,185828.00,A,5141.77525257,N,00517.51098972,E,2.051,318.6,200423,2.1,E,F,V*5F
$GNGST,185828.00,3.04,1.31,1.03,40.2768,0.803,0.772,1.323*74
$INS.NAVI,185827.800,0.000000000,0.000000000,0.000000000,0.000000,0.000000,0.000000,0.194214,0.110121,-2.874143,-1.000000,0.060400,-0.185993,-0.042520,0.006178,-0.013824,0.008342,42.391304,1026,001C0001*03
$INS.NAVI,185828.000,0.000000000,0.000000000,0.000000000,0.000000,0.000000,0.000000,0.160140,0.197695,2.956643,-1.000000,0.060400,-0.185993,-0.042520,0.006186,-0.013819,0.008376,42.391304,1026,001C0001*29
$INS.NAVI,185828.200,0.000000000,0.000000000,0.000000000,0.000000,0.000000,0.000000,0.195309,0.190835,2.788642,-1.000000,0.060400,-0.185993,-0.042520,0.006170,-0.013823,0.008416,42.391304,1026,001C0001*20
$INS.NAVI,185828.400,0.000000000,0.000000000,0.000000000,0.000000,0.000000,0.000000,0.175335,0.151409,2.932402,-1.000000,0.060400,-0.185993,-0.042520,0.006170,-0.013824,0.008471,42.391304,1026,001C0001*26
$INS.NAVI,185828.600,0.000000000,0.000000000,0.000000000,0.000000,0.000000,0.000000,0.265797,0.112021,-2.948736,-1.000000,0.060400,-0.185993,-0.042520,0.006162,-0.013822,0.008484,42.391304,1026,001C0001*08
$GNGGA,185829.00,5141.77589704,N,00517.51044533,E,5,12,1.8,8.7344,M,44.5529,M,01,0*41
$GNZDA,185829.00,20,04,2023,,*72
$GNGSA,M,3,01,17,03,,,,,,,,,,3.0,1.8,2.4,1*35
$GNGSA,M,3,85,71,,,,,,,,,,,3.0,1.8,2.4,2*39
$GNGSA,M,3,36,02,11,,,,,,,,,,3.0,1.8,2.4,3*34
$GNGSA,M,3,29,35,19,20,,,,,,,,,3.0,1.8,2.4,4*33
$GNRMC,185829.00,A,5141.77589704,N,00517.51044533,E,2.546,341.6,200423,2.1,E,F,V*5C
$GNGST,185829.00,3.54,1.30,1.04,40.9555,0.797,0.772,1.317*74
$INS.NAVI,185828.800,0.000000000,0.000000000,0.000000000,0.000000,0.000000,0.000000,0.203422,0.062556,-2.785855,-1.000000,0.060400,-0.185993,-0.042520,0.006176,-0.013803,0.008395,42.391304,1026,001C0001*0C
$INS.NAVI,185829.000,0.000000000,0.000000000,0.000000000,0.000000,0.000000,0.000000,0.229078,0.013483,-2.943136,-1.000000,0.060400,-0.185993,-0.042520,0.006159,-0.013784,0.008359,42.391304,1026,001C0001*0C
$INS.NAVI,185829.200,0.000000000,0.000000000,0.000000000,0.000000,0.000000,0.000000,0.246730,0.137932,3.017418,-1.000000,0.060400,-0.185993,-0.042520,0.006170,-0.013755,0.008404,42.391304,1026,001C0001*29
$INS.NAVI,185829.400,0.000000000,0.000000000,0.000000000,0.000000,0.000000,0.000000,0.189786,0.088728,2.898073,-1.000000,0.060400,-0.185993,-0.042520,0.006167,-0.013764,0.008461,42.391304,1026,001C0001*22
$INS.NAVI,185829.600,0.000000000,0.000000000,0.000000000,0.000000,0.000000,0.000000,0.135823,0.041123,2.829784,-1.000000,0.060400,-0.185993,-0.042520,0.006167,-0.013763,0.008511,42.391304,1026,001C0001*2B
$GNGGA,185830.00,5141.77657343,N,00517.50996338,E,5,18,0.8,8.8608,M,44.5529,M,02,0*4E
$GNZDA,185830.00,20,04,2023,,*7A
$GNGSA,M,3,03,04,17,19,01,,,,,,,,1.2,0.8,0.9,1*37
$GNGSA,M,3,85,71,,,,,,,,,,,1.2,0.8,0.9,2*37
$GNGSA,M,3,04,10,36,02,11,,,,,,,,1.2,0.8,0.9,3*3F
$GNGSA,M,3,29,35,19,39,30,20,,,,,,,1.2,0.8,0.9,4*34
$GNRMC,185830.00,A,5141.77657343,N,00517.50996338,E,2.186,346.4,200423,2.1,E,F,V*54
$GNGST,185830.00,2.43,1.30,1.02,41.2221,0.789,0.765,1.280*75
$INS.NAVI,185829.800,0.000000000,0.000000000,0.000000000,0.000000,0.000000,0.000000,0.118779,0.095945,2.796296,-1.000000,0.060400,-0.185993,-0.042520,0.006142,-0.013736,0.008561,42.391304,1026,001C0001*26
$INS.NAVI,185830.000,0.000000000,0.000000000,0.000000000,0.000000,0.000000,0.000000,0.110406,0.125162,2.730931,-1.000000,0.060400,-0.185993,-0.042520,0.006155,-0.013712,0.008619,42.391304,1026,001C0001*24
$INS.NAVI,185830.200,0.000000000,0.000000000,0.000000000,0.000000,0.000000,0.000000,0.008708,0.150740,2.646575,-1.000000,0.060400,-0.185993,-0.042520,0.006147,-0.013692,0.008678,42.391304,1026,001C0001*26
$INS.NAVI,185830.400,0.000000000,0.000000000,0.000000000,0.000000,0.000000,0.000000,0.034515,0.183538,2.550845,-1.000000,0.060400,-0.185993,-0.042520,0.006136,-0.013688,0.008752,42.391304,1026,001C0001*2C
$INS.NAVI,185830.600,0.000000000,0.000000000,0.000000000,0.000000,0.000000,0.000000,0.073076,0.175957,2.534812,-1.000000,0.060400,-0.185993,-0.042520,0.006145,-0.013696,0.008802,42.391304,1026,001C0001*20