$GPGGA,225651.00,3617.56130011,N,09718.50567350,W,1,03,4.4,322.480,M,-25.964,M,,*56
$PTNL,GGK,225651.00,031016,3617.56130011,N,09718.50567350,W,1,03,4.4,EHT296.517,M*62
$GPGST,225651.00,0.000,13.909,3.606,143.0,11.322,8.847,1.002*54
$GPZDA,225651.02,10,03,2016,00,00*64
$GPGSA,A,2,8,9,27,,,,,,,,,,4.4,4.4,0.0*37
$GPRMC,225651.00,A,3617.56130011,N,09718.50567350,W,0.065,231.147,100316,999.9000,E,A*16
$GPGLL,3617.56130011,N,09718.50567350,W,225651.00,A,A*7E
$GPGNS,225651.00,3617.56130,N,09718.50567,W,ANN,03,4.4,322.5,-26.0,,*3A
$GPGGA,225652.00,3617.56129927,N,09718.50566807,W,1,03,4.4,322.480,M,-25.964,M,,*59
$PTNL,GGK,225652.00,031016,3617.56129927,N,09718.50566807,W,1,03,4.4,EHT296.517,M*6D
$GPGST,225652.00,0.000,13.902,3.606,143.0,11.317,8.842,1.002*5F
$GPZDA,225652.03,10,03,2016,00,00*66
$GPGSA,A,2,8,9,27,,,,,,,,,,4.4,4.4,0.0*37
$GPRMC,225652.00,A,3617.56129927,N,09718.50566807,W,0.469,329.087,100316,999.9000,E,A*14
$GPGLL,3617.56129927,N,09718.50566807,W,225652.00,A,A*71
$GPGNS,225652.00,3617.56130,N,09718.50567,W,ANN,03,4.4,322.5,-26.0,,*39
$GPGGA,225653.00,3617.56129392,N,09718.50567404,W,1,03,4.4,322.480,M,-25.964,M,,*52
$PTNL,GGK,225653.00,031016,3617.56129392,N,09718.50567404,W,1,03,4.4,EHT296.517,M*66
$GPGST,225653.00,0.000,13.902,3.606,143.0,11.317,8.842,1.002*5E
$GPZDA,225653.02,10,03,2016,00,00*66
$GPGSA,A,2,8,9,27,,,,,,,,,,4.4,4.4,0.0*37
$GPRMC,225653.00,A,3617.56129392,N,09718.50567404,W,0.232,285.552,100316,999.9000,E,A*1D
$GPGLL,3617.56129392,N,09718.50567404,W,225653.00,A,A*7A
$GPGNS,225653.00,3617.56129,N,09718.50567,W,ANN,03,4.4,322.5,-26.0,,*30
$GPGGA,225654.00,3617.56129159,N,09718.50568054,W,1,03,4.4,322.480,M,-25.964,M,,*5E
$PTNL,GGK,225654.00,031016,3617.56129159,N,09718.50568054,W,1,03,4.4,EHT296.517,M*6A
$GPGST,225654.00,0.000,13.918,3.604,143.0,11.323,8.859,1.002*5D
$GPZDA,225654.02,10,03,2016,00,00*61
$GPGSA,A,2,8,9,27,,,,,,,,,,4.4,4.4,0.0*37
$GPRMC,225654.00,A,3617.56129159,N,09718.50568054,W,0.330,165.024,100316,999.9000,E,A*1B
$GPGLL,3617.56129159,N,09718.50568054,W,225654.00,A,A*76
$GPGNS,225654.00,3617.56129,N,09718.50568,W,ANN,03,4.4,322.5,-26.0,,*38
$GPGGA,225655.00,3617.56127374,N,09718.50567479,W,1,03,4.4,322.480,M,-25.964,M,,*58
$PTNL,GGK,225655.00,031016,3617.56127374,N,09718.50567479,W,1,03,4.4,EHT296.517,M*6C
$GPGST,225655.00,0.000,13.918,3.604,143.0,11.323,8.860,1.002*56
$GPZDA,225655.02,10,03,2016,00,00*60
$GPGSA,A,2,8,9,27,,,,,,,,,,4.4,4.4,0.0*37
$GPRMC,225655.00,A,3617.56127374,N,09718.50567479,W,0.133,190.981,100316,999.9000,E,A*10
$GPGLL,3617.56127374,N,09718.50567479,W,225655.00,A,A*70
$GPGNS,225655.00,3617.56127,N,09718.50567,W,ANN,03,4.4,322.5,-26.0,,*38
$GPGGA,225656.00,3617.55918596,N,09718.50525853,W,1,04,3.1,314.194,M,-25.964,M,,*54
$PTNL,GGK,225656.00,031016,3617.55918596,N,09718.50525853,W,1,04,6.0,EHT288.230,M*6C
$GPGST,225656.00,0.000,18.936,6.414,161.2,18.047,8.603,43.290*6A
$GPZDA,225656.03,10,03,2016,00,00*62
$GPGSA,A,3,8,9,23,27,,,,,,,,,6.0,3.1,5.1*37
$GPRMC,225656.00,A,3617.55918596,N,09718.50525853,W,1.157,250.123,100316,999.9000,E,A*10
$GPGLL,3617.55918596,N,09718.50525853,W,225656.00,A,A*7C
$GPGNS,225656.00,3617.55919,N,09718.50526,W,ANN,04,3.1,314.2,-26.0,,*3F
$GPGGA,225657.00,3617.55909692,N,09718.50531750,W,1,04,3.1,313.669,M,-25.964,M,,*59
$PTNL,GGK,225657.00,031016,3617.55909692,N,09718.50531750,W,1,04,5.9,EHT287.706,M*66
$GPGST,225657.00,0.000,20.970,6.482,162.6,20.103,8.811,47.934*6C
$GPZDA,225657.03,10,03,2016,00,00*63
$GPGSA,A,3,8,9,23,27,,,,,,,,,5.9,3.1,5.1*3D
$GPRMC,225657.00,A,3617.55909692,N,09718.50531750,W,0.238,150.440,100316,999.9000,E,A*17
$GPGLL,3617.55909692,N,09718.50531750,W,225657.00,A,A*73
$GPGNS,225657.00,3617.55910,N,09718.50532,W,ANN,04,3.1,313.7,-26.0,,*30
$GPGGA,225658.00,3617.55925929,N,09718.50517991,W,1,04,3.1,313.975,M,-25.964,M,,*52
$PTNL,GGK,225658.00,031016,3617.55925929,N,09718.50517991,W,1,04,5.9,EHT288.011,M*61
$GPGST,225658.00,0.000,9.286,3.315,125.3,6.012,7.815,17.282*6D
$GPZDA,225658.03,10,03,2016,00,00*6C
$GPGSA,A,3,8,9,23,27,,,,,,,,,5.9,3.1,5.1*3D
$GPRMC,225658.00,A,3617.55925929,N,09718.50517991,W,0.861,55.924,100316,999.9000,E,A*23
$GPGLL,3617.55925929,N,09718.50517991,W,225658.00,A,A*7A
$GPGNS,225658.00,3617.55926,N,09718.50518,W,ANN,04,3.1,314.0,-26.0,,*32
$GPGGA,225659.00,3617.55931212,N,09718.50521494,W,1,04,3.1,313.955,M,-25.964,M,,*5A
$PTNL,GGK,225659.00,031016,3617.55931212,N,09718.50521494,W,1,04,5.9,EHT287.991,M*65
$GPGST,225659.00,0.000,9.287,3.314,125.3,6.012,7.816,17.275*67
$GPZDA,225659.03,10,03,2016,00,00*6D
$GPGSA,A,3,8,9,23,27,,,,,,,,,5.9,3.1,5.1*3D
$GPRMC,225659.00,A,3617.55931212,N,09718.50521494,W,0.249,307.771,100316,999.9000,E,A*13
$GPGLL,3617.55931212,N,09718.50521494,W,225659.00,A,A*70
$GPGNS,225659.00,3617.55931,N,09718.50521,W,ANN,04,3.1,314.0,-26.0,,*3F
$GPGGA,225700.00,3617.55938982,N,09718.50522366,W,1,04,3.1,313.776,M,-25.964,M,,*5A
$PTNL,GGK,225700.00,031016,3617.55938982,N,09718.50522366,W,1,04,5.9,EHT287.812,M*60
$GPGST,225700.00,0.000,9.288,3.314,125.3,6.012,7.817,17.269*69
$GPZDA,225700.03,10,03,2016,00,00*60
$GPGSA,A,3,8,9,23,27,,,,,,,,,5.9,3.1,5.1*3D
$GPRMC,225700.00,A,3617.55938982,N,09718.50522366,W,0.248,328.652,100316,999.9000,E,A*10
$GPGLL,3617.55938982,N,09718.50522366,W,225700.00,A,A*7F
$GPGNS,225700.00,3617.55939,N,09718.50522,W,ANN,04,3.1,313.8,-26.0,,*36
$GPGGA,225701.00,3617.55936317,N,09718.50521830,W,1,04,3.1,313.692,M,-25.964,M,,*53
$PTNL,GGK,225701.00,031016,3617.55936317,N,09718.50521830,W,1,04,5.9,EHT287.728,M*64
$GPGST,225701.00,0.000,9.289,3.313,125.3,6.012,7.817,17.263*64
$GPZDA,225701.03,10,03,2016,00,00*61
$GPGSA,A,3,8,9,23,27,,,,,,,,,5.9,3.1,5.1*3D
$GPRMC,225701.00,A,3617.55936317,N,09718.50521830,W,0.192,275.305,100316,999.9000,E,A*18
$GPGLL,3617.55936317,N,09718.50521830,W,225701.00,A,A*7D
$GPGNS,225701.00,3617.55936,N,09718.50522,W,ANN,04,3.1,313.7,-26.0,,*37
$GPGGA,225702.00,3617.55933404,N,09718.50518644,W,1,05,1.7,313.679,M,-25.964,M,,*57
$PTNL,GGK,225702.00,031016,3617.55933404,N,09718.50518644,W,1,05,5.0,EHT287.715,M*66
$GPGST,225702.00,0.609,6.301,3.269,120.8,4.279,5.663,16.154*60
$GPZDA,225702.03,10,03,2016,00,00*62
$GPGSA,A,3,8,9,23,27,7,,,,,,,,5.0,1.7,4.7*00
$GPRMC,225702.00,A,3617.55933404,N,09718.50518644,W,0.049,100.219,100316,999.9000,E,A*16
$GPGLL,3617.55933404,N,09718.50518644,W,225702.00,A,A*79
$GPGNS,225702.00,3617.55933,N,09718.50519,W,ANN,05,1.7,313.7,-26.0,,*3C
$GPGGA,225703.00,3617.55927601,N,09718.50509869,W,1,05,1.7,313.756,M,-25.964,M,,*59
$PTNL,GGK,225703.00,031016,3617.55927601,N,09718.50509869,W,1,05,5.0,EHT287.792,M*6B
$GPGST,225703.00,0.407,6.302,3.268,120.8,4.280,5.664,16.149*62
$GPZDA,225703.03,10,03,2016,00,00*63
$GPGSA,A,3,8,9,23,27,7,,,,,,,,5.0,1.7,4.7*00
$GPRMC,225703.00,A,3617.55927601,N,09718.50509869,W,0.122,85.559,100316,999.9000,E,A*27
$GPGLL,3617.55927601,N,09718.50509869,W,225703.00,A,A*7B
$GPGNS,225703.00,3617.55928,N,09718.50510,W,ANN,05,1.7,313.8,-26.0,,*31
$GPGGA,225704.00,3617.55924096,N,09718.50504278,W,1,05,1.7,313.857,M,-25.964,M,,*5C
$PTNL,GGK,225704.00,031016,3617.55924096,N,09718.50504278,W,1,05,5.0,EHT287.894,M*69
$GPGST,225704.00,0.307,6.303,3.268,120.8,4.280,5.665,16.145*6E
$GPZDA,225704.03,10,03,2016,00,00*64
$GPGSA,A,3,8,9,23,27,7,,,,,,,,5.0,1.7,4.7*00
$GPRMC,225704.00,A,3617.55924096,N,09718.50504278,W,0.076,87.386,100316,999.9000,E,A*2A
$GPGLL,3617.55924096,N,09718.50504278,W,225704.00,A,A*70
$GPGNS,225704.00,3617.55924,N,09718.50504,W,ANN,05,1.7,313.9,-26.0,,*3E
$GPGGA,225705.00,3617.55921587,N,09718.50500935,W,1,05,1.7,313.939,M,-25.964,M,,*52
$PTNL,GGK,225705.00,031016,3617.55921587,N,09718.50500935,W,1,05,5.0,EHT287.975,M*60
$GPGST,225705.00,0.252,6.304,3.267,120.8,4.280,5.666,16.141*61
$GPZDA,225705.03,10,03,2016,00,00*65
$GPGSA,A,3,8,9,23,27,7,,,,,,,,5.0,1.7,4.7*00
$GPRMC,225705.00,A,3617.55921587,N,09718.50500935,W,0.055,134.415,100316,999.9000,E,A*18
$GPGLL,3617.55921587,N,09718.50500935,W,225705.00,A,A*77
$GPGNS,225705.00,3617.55922,N,09718.50501,W,ANN,05,1.7,313.9,-26.0,,*3C
$GPGGA,225706.00,3617.55920186,N,09718.50497303,W,1,05,1.7,314.035,M,-25.964,M,,*57
$PTNL,GGK,225706.00,031016,3617.55920186,N,09718.50497303,W,1,05,5.0,EHT288.072,M*66
$GPGST,225706.00,0.222,6.305,3.267,120.8,4.280,5.667,16.136*65
$GPZDA,225706.03,10,03,2016,00,00*66
$GPGSA,A,3,8,9,23,27,7,,,,,,,,5.0,1.7,4.7*00
$GPRMC,225706.00,A,3617.55920186,N,09718.50497303,W,0.114,89.859,100316,999.9000,E,A*28
$GPGLL,3617.55920186,N,09718.50497303,W,225706.00,A,A*70
$GPGNS,225706.00,3617.55920,N,09718.50497,W,ANN,05,1.7,314.0,-26.0,,*3D
$GPGGA,225707.00,3617.55919308,N,09718.50494487,W,1,05,1.7,314.129,M,-25.964,M,,*5C
$PTNL,GGK,225707.00,031016,3617.55919308,N,09718.50494487,W,1,05,5.0,EHT288.165,M*66
$GPGST,225707.00,0.207,6.307,3.266,120.8,4.280,5.668,16.132*6B
$GPZDA,225707.03,10,03,2016,00,00*67
$GPGSA,A,3,8,9,23,27,7,,,,,,,,5.0,1.7,4.7*00
$GPRMC,225707.00,A,3617.55919308,N,09718.50494487,W,0.105,91.383,100316,999.9000,E,A*2A
$GPGLL,3617.55919308,N,09718.50494487,W,225707.00,A,A*77
$GPGNS,225707.00,3617.55919,N,09718.50494,W,ANN,05,1.7,314.1,-26.0,,*34
$GPGGA,225708.00,3617.55918419,N,09718.50492156,W,1,05,1.7,314.220,M,-25.964,M,,*50
$PTNL,GGK,225708.00,031016,3617.55918419,N,09718.50492156,W,1,05,5.0,EHT288.256,M*63
$GPGST,225708.00,0.198,6.308,3.266,120.8,4.280,5.669,16.127*6B
$GPZDA,225708.03,10,03,2016,00,00*68
$GPGSA,A,3,8,9,23,27,7,,,,,,,,5.0,1.7,4.7*00
$GPRMC,225708.00,A,3617.55918419,N,09718.50492156,W,0.092,93.133,100316,999.9000,E,A*28
$GPGLL,3617.55918419,N,09718.50492156,W,225708.00,A,A*71
$GPGNS,225708.00,3617.55918,N,09718.50492,W,ANN,05,1.7,314.2,-26.0,,*3F
$GPGGA,225709.00,3617.55917168,N,09718.50490030,W,1,05,1.7,314.258,M,-25.964,M,,*51
$PTNL,GGK,225709.00,031016,3617.55917168,N,09718.50490030,W,1,05,5.0,EHT288.294,M*63
$GPGST,225709.00,0.183,6.309,3.265,120.9,4.281,5.669,16.124*61
$GPZDA,225709.03,10,03,2016,00,00*69
$GPGSA,A,3,8,9,23,27,7,,,,,,,,5.0,1.7,4.7*00
$GPRMC,225709.00,A,3617.55917168,N,09718.50490030,W,0.146,102.354,100316,999.9000,E,A*14
$GPGLL,3617.55917168,N,09718.50490030,W,225709.00,A,A*7F
$GPGNS,225709.00,3617.55917,N,09718.50490,W,ANN,05,1.7,314.3,-26.0,,*32
$GPGGA,225710.00,3617.55916753,N,09718.50488510,W,1,05,1.7,314.340,M,-25.964,M,,*50
$PTNL,GGK,225710.00,031016,3617.55916753,N,09718.50488510,W,1,05,5.0,EHT288.376,M*67
$GPGST,225710.00,0.174,6.310,3.265,120.9,4.281,5.670,16.119*6F
$GPZDA,225710.03,10,03,2016,00,00*61
$GPGSA,A,3,8,9,23,27,7,,,,,,,,5.0,1.7,4.7*00
$GPRMC,225710.00,A,3617.55916753,N,09718.50488510,W,0.104,93.228,100316,999.9000,E,A*28
$GPGLL,3617.55916753,N,09718.50488510,W,225710.00,A,A*76
$GPGNS,225710.00,3617.55917,N,09718.50489,W,ANN,05,1.7,314.3,-26.0,,*32
$GPGGA,225711.00,3617.55916294,N,09718.50488107,W,1,06,1.4,314.318,M,-25.964,M,,*50
$PTNL,GGK,225711.00,031016,3617.55916294,N,09718.50488107,W,1,06,4.4,EHT288.355,M*6D
$GNGST,225711.00,0.088,5.081,3.231,116.2,3.664,4.778,14.983*7C
$GPZDA,225711.03,10,03,2016,00,00*60
$GNGSA,A,3,8,9,23,27,7,,,,,,,,4.4,1.4,4.1*1E
$GNGSA,A,3,79,,,,,,,,,,,,4.4,1.4,4.1*22
$GPRMC,225711.00,A,3617.55916294,N,09718.50488107,W,0.111,100.048,100316,999.9000,E,A*1E
$GPGLL,3617.55916294,N,09718.50488107,W,225711.00,A,A*7B
$GNGNS,225711.00,3617.55916,N,09718.50488,W,AAN,06,1.4,314.3,-26.0,,*22
$GPGGA,225712.00,3617.55915507,N,09718.50486987,W,1,06,1.4,314.320,M,-25.964,M,,*58
$PTNL,GGK,225712.00,031016,3617.55915507,N,09718.50486987,W,1,06,4.4,EHT288.357,M*6C
$GNGST,225712.00,0.082,5.082,3.230,116.2,3.664,4.779,14.980*75
$GPZDA,225712.04,10,03,2016,00,00*64
$GNGSA,A,3,8,9,23,27,7,,,,,,,,4.4,1.4,4.1*1E
$GNGSA,A,3,79,,,,,,,,,,,,4.4,1.4,4.1*22
$GPRMC,225712.00,A,3617.55915507,N,09718.50486987,W,0.088,96.728,100316,999.9000,E,A*23
$GPGLL,3617.55915507,N,09718.50486987,W,225712.00,A,A*78
$GNGNS,225712.00,3617.55916,N,09718.50487,W,AAN,06,1.4,314.3,-26.0,,*2E
$GPGGA,225713.00,3617.55912211,N,09718.50482371,W,1,06,1.4,314.379,M,-25.964,M,,*55
$PTNL,GGK,225713.00,031016,3617.55912211,N,09718.50482371,W,1,06,4.4,EHT288.415,M*6C
$GNGST,225713.00,0.914,5.083,3.230,116.2,3.664,4.780,14.977*7D
$GPZDA,225713.04,10,03,2016,00,00*65
$GNGSA,A,3,8,9,23,27,7,,,,,,,,4.4,1.4,4.1*1E
$GNGSA,A,3,79,,,,,,,,,,,,4.4,1.4,4.1*22
$GPRMC,225713.00,A,3617.55912211,N,09718.50482371,W,0.080,70.610,100316,999.9000,E,A*28
$GPGLL,3617.55912211,N,09718.50482371,W,225713.00,A,A*79
$GNGNS,225713.00,3617.55912,N,09718.50482,W,AAN,06,1.4,314.4,-26.0,,*29
$GPGGA,225714.00,3617.55908071,N,09718.50476002,W,1,06,1.4,314.470,M,-25.964,M,,*5F
$PTNL,GGK,225714.00,031016,3617.55908071,N,09718.50476002,W,1,06,4.4,EHT288.507,M*6A
$GNGST,225714.00,1.503,5.084,3.229,116.2,3.664,4.780,14.973*7A
$GPZDA,225714.04,10,03,2016,00,00*62
$GNGSA,A,3,8,9,23,27,7,,,,,,,,4.4,1.4,4.1*1E
$GNGSA,A,3,79,,,,,,,,,,,,4.4,1.4,4.1*22
$GPRMC,225714.00,A,3617.55908071,N,09718.50476002,W,0.106,94.162,100316,999.9000,E,A*2B
$GPGLL,3617.55908071,N,09718.50476002,W,225714.00,A,A*7D
$GNGNS,225714.00,3617.55908,N,09718.50476,W,AAN,06,1.4,314.5,-26.0,,*2F
$GPGGA,225715.00,3617.55903592,N,09718.50469951,W,1,06,1.4,314.593,M,-25.964,M,,*50
$PTNL,GGK,225715.00,031016,3617.55903592,N,09718.50469951,W,1,06,4.4,EHT288.630,M*6E
$GNGST,225715.00,1.901,5.085,3.228,116.2,3.664,4.781,14.970*77
$GPZDA,225715.03,10,03,2016,00,00*64
$GNGSA,A,3,8,9,23,27,7,,,,,,,,4.4,1.4,4.1*1E
$GNGSA,A,3,79,,,,,,,,,,,,4.4,1.4,4.1*22
$GPRMC,225715.00,A,3617.55903592,N,09718.50469951,W,0.114,82.588,100316,999.9000,E,A*2C
$GPGLL,3617.55903592,N,09718.50469951,W,225715.00,A,A*7E
$GNGNS,225715.00,3617.55904,N,09718.50470,W,AAN,06,1.4,314.6,-26.0,,*27
$GPGGA,225716.00,3617.55899820,N,09718.50464538,W,1,06,1.4,314.653,M,-25.964,M,,*54
$PTNL,GGK,225716.00,031016,3617.55899820,N,09718.50464538,W,1,06,4.4,EHT288.689,M*67
$GNGST,225716.00,2.181,5.086,3.227,116.2,3.663,4.782,14.966*78
$GPZDA,225716.03,10,03,2016,00,00*67
$GNGSA,A,3,8,9,23,27,7,,,,,,,,4.4,1.4,4.1*1E
$GNGSA,A,3,79,,,,,,,,,,,,4.4,1.4,4.1*22
$GPRMC,225716.00,A,3617.55899820,N,09718.50464538,W,0.072,80.246,100316,999.9000,E,A*21
$GPGLL,3617.55899820,N,09718.50464538,W,225716.00,A,A*75
$GNGNS,225716.00,3617.55900,N,09718.50465,W,AAN,06,1.4,314.7,-26.0,,*25
$GPGGA,225717.00,3617.55896009,N,09718.50459710,W,1,06,1.4,314.767,M,-25.964,M,,*59
$PTNL,GGK,225717.00,031016,3617.55896009,N,09718.50459710,W,1,06,4.3,EHT288.804,M*60
$GNGST,225717.00,2.421,5.087,3.227,116.2,3.664,4.783,14.963*74
$GPZDA,225717.03,10,03,2016,00,00*66
$GNGSA,A,3,8,9,23,27,7,,,,,,,,4.3,1.4,4.1*19
$GNGSA,A,3,79,,,,,,,,,,,,4.3,1.4,4.1*25
$GPRMC,225717.00,A,3617.55896009,N,09718.50459710,W,0.084,91.608,100316,999.9000,E,A*2D
$GPGLL,3617.55896009,N,09718.50459710,W,225717.00,A,A*7E
$GNGNS,225717.00,3617.55896,N,09718.50460,W,AAN,06,1.4,314.8,-26.0,,*20
$GPGGA,225718.00,3617.55892687,N,09718.50454251,W,1,06,1.4,314.888,M,-25.964,M,,*51
$PTNL,GGK,225718.00,031016,3617.55892687,N,09718.50454251,W,1,06,4.3,EHT288.924,M*65
$GNGST,225718.00,2.500,5.088,3.226,116.2,3.663,4.783,14.960*73
$GPZDA,225718.03,10,03,2016,00,00*69
$GNGSA,A,3,8,9,23,27,7,,,,,,,,4.3,1.4,4.1*19
$GNGSA,A,3,79,,,,,,,,,,,,4.3,1.4,4.1*25
$GPRMC,225718.00,A,3617.55892687,N,09718.50454251,W,0.103,96.831,100316,999.9000,E,A*26
$GPGLL,3617.55892687,N,09718.50454251,W,225718.00,A,A*78
$GNGNS,225718.00,3617.55893,N,09718.50454,W,AAN,06,1.4,314.9,-26.0,,*2C
$GPGGA,225719.00,3617.55889855,N,09718.50449127,W,1,06,1.4,315.048,M,-25.964,M,,*50
$PTNL,GGK,225719.00,031016,3617.55889855,N,09718.50449127,W,1,06,4.3,EHT289.085,M*62
$GNGST,225719.00,2.732,5.089,3.225,116.2,3.663,4.784,14.956*71
$GPZDA,225719.03,10,03,2016,00,00*68
$GNGSA,A,3,8,9,23,27,7,,,,,,,,4.3,1.4,4.1*19
$GNGSA,A,3,79,,,,,,,,,,,,4.3,1.4,4.1*25
$GPRMC,225719.00,A,3617.55889855,N,09718.50449127,W,0.100,95.628,100316,999.9000,E,A*24
$GPGLL,3617.55889855,N,09718.50449127,W,225719.00,A,A*7C
$GNGNS,225719.00,3617.55890,N,09718.50449,W,AAN,06,1.4,315.0,-26.0,,*2A
$GPGGA,225720.00,3617.55887225,N,09718.50444870,W,1,06,1.4,315.128,M,-25.964,M,,*58
$PTNL,GGK,225720.00,031016,3617.55887225,N,09718.50444870,W,1,06,4.3,EHT289.164,M*63
$GNGST,225720.00,2.779,5.091,3.225,116.2,3.663,4.785,14.952*78
$GPZDA,225720.04,10,03,2016,00,00*65
$GNGSA,A,3,8,9,23,27,7,,,,,,,,4.3,1.4,4.1*19
$GNGSA,A,3,79,,,,,,,,,,,,4.3,1.4,4.1*25
$GPRMC,225720.00,A,3617.55887225,N,09718.50444870,W,0.083,100.700,100316,999.9000,E,A*17
$GPGLL,3617.55887225,N,09718.50444870,W,225720.00,A,A*73
$GNGNS,225720.00,3617.55887,N,09718.50445,W,AAN,06,1.4,315.1,-26.0,,*2B
$GPGGA,225721.00,3617.55884527,N,09718.50441130,W,1,06,1.4,315.219,M,-25.964,M,,*56
$PTNL,GGK,225721.00,031016,3617.55884527,N,09718.50441130,W,1,06,4.3,EHT289.256,M*6E
$GNGST,225721.00,2.810,5.091,3.224,116.2,3.663,4.786,14.950*79
$GPZDA,225721.04,10,03,2016,00,00*64
$GNGSA,A,3,8,9,23,27,7,,,,,,,,4.3,1.4,4.1*19
$GNGSA,A,3,79,,,,,,,,,,,,4.3,1.4,4.1*25
$GPRMC,225721.00,A,3617.55884527,N,09718.50441130,W,0.114,113.771,100316,999.9000,E,A*13
$GPGLL,3617.55884527,N,09718.50441130,W,225721.00,A,A*7C
$GNGNS,225721.00,3617.55885,N,09718.50441,W,AAN,06,1.4,315.2,-26.0,,*2F
$GPGGA,225722.00,3617.55883222,N,09718.50437802,W,1,06,1.4,315.314,M,-25.964,M,,*55
$PTNL,GGK,225722.00,031016,3617.55883222,N,09718.50437802,W,1,06,4.3,EHT289.350,M*66
$GNGST,225722.00,2.693,5.093,3.224,116.2,3.663,4.786,14.946*7A
$GPZDA,225722.04,10,03,2016,00,00*67
$GNGSA,A,3,8,9,23,27,7,,,,,,,,4.3,1.4,4.1*19
$GNGSA,A,3,79,,,,,,,,,,,,4.3,1.4,4.1*25
$GPRMC,225722.00,A,3617.55883222,N,09718.50437802,W,0.077,86.677,100316,999.9000,E,A*22
$GPGLL,3617.55883222,N,09718.50437802,W,225722.00,A,A*73
$GNGNS,225722.00,3617.55883,N,09718.50438,W,AAN,06,1.4,315.3,-26.0,,*25
$GPGGA,225723.00,3617.55882239,N,09718.50435296,W,1,06,1.4,315.436,M,-25.964,M,,*5D
$PTNL,GGK,225723.00,031016,3617.55882239,N,09718.50435296,W,1,06,4.3,EHT289.472,M*6E
$GNGST,225723.00,2.588,5.094,3.223,116.2,3.663,4.787,14.942*77
$GPZDA,225723.03,10,03,2016,00,00*61
$GNGSA,A,3,8,9,23,27,7,,,,,,,,4.3,1.4,4.1*19
$GNGSA,A,3,79,,,,,,,,,,,,4.3,1.4,4.1*25
$GPRMC,225723.00,A,3617.55882239,N,09718.50435296,W,0.072,90.544,100316,999.9000,E,A*2C
$GPGLL,3617.55882239,N,09718.50435296,W,225723.00,A,A*7C
$GNGNS,225723.00,3617.55882,N,09718.50435,W,AAN,06,1.4,315.4,-26.0,,*2F
$GPGGA,225724.00,3617.55881732,N,09718.50432994,W,1,06,1.4,315.544,M,-25.964,M,,*5D
$PTNL,GGK,225724.00,031016,3617.55881732,N,09718.50432994,W,1,06,4.3,EHT289.581,M*67
$GNGST,225724.00,2.609,5.095,3.222,116.2,3.663,4.788,14.938*78
$GPZDA,225724.04,10,03,2016,00,00*61
$GNGSA,A,3,8,9,23,27,7,,,,,,,,4.3,1.4,4.1*19
$GNGSA,A,3,79,,,,,,,,,,,,4.3,1.4,4.1*25
$GPRMC,225724.00,A,3617.55881732,N,09718.50432994,W,0.071,78.600,100316,999.9000,E,A*2E
$GPGLL,3617.55881732,N,09718.50432994,W,225724.00,A,A*78
$GNGNS,225724.00,3617.55882,N,09718.50433,W,AAN,06,1.4,315.5,-26.0,,*2F
$GPGGA,225725.00,3617.55880984,N,09718.50430882,W,1,06,1.4,315.632,M,-25.964,M,,*58
$PTNL,GGK,225725.00,031016,3617.55880984,N,09718.50430882,W,1,06,4.3,EHT289.669,M*65
$GNGST,225725.00,2.682,5.096,3.222,116.2,3.663,4.789,14.936*76
$GPZDA,225725.04,10,03,2016,00,00*60
$GNGSA,A,3,8,9,23,27,7,,,,,,,,4.3,1.4,4.1*19
$GNGSA,A,3,79,,,,,,,,,,,,4.3,1.4,4.1*25
$GPRMC,225725.00,A,3617.55880984,N,09718.50430882,W,0.091,83.389,100316,999.9000,E,A*27
$GPGLL,3617.55880984,N,09718.50430882,W,225725.00,A,A*7F
$GNGNS,225725.00,3617.55881,N,09718.50431,W,AAN,06,1.4,315.6,-26.0,,*2C
$GPGGA,225726.00,3617.55879752,N,09718.50429093,W,1,06,1.4,315.728,M,-25.964,M,,*52
$PTNL,GGK,225726.00,031016,3617.55879752,N,09718.50429093,W,1,06,4.3,EHT289.765,M*68
$GNGST,225726.00,2.690,5.097,3.221,116.2,3.663,4.789,14.932*70
$GPZDA,225726.04,10,03,2016,00,00*63
$GNGSA,A,3,8,9,23,27,7,,,,,,,,4.3,1.4,4.1*19
$GNGSA,A,3,79,,,,,,,,,,,,4.3,1.4,4.1*25
$GPRMC,225726.00,A,3617.55879752,N,09718.50429093,W,0.106,104.540,100316,999.9000,E,A*15
$GPGLL,3617.55879752,N,09718.50429093,W,225726.00,A,A*7F
$GNGNS,225726.00,3617.55880,N,09718.50429,W,AAN,06,1.4,315.7,-26.0,,*26
$GPGGA,225727.00,3617.55883246,N,09718.50433139,W,1,07,1.4,315.869,M,-25.964,M,,*57
$PTNL,GGK,225727.00,031016,3617.55883246,N,09718.50433139,W,1,07,4.3,EHT289.905,M*6F
$GNGST,225727.00,2.002,4.533,3.147,109.1,3.323,4.406,14.913*7E
$GPZDA,225727.04,10,03,2016,00,00*62
$GNGSA,A,3,8,9,23,27,7,,,,,,,,4.3,1.4,4.1*19
$GNGSA,A,3,79,,,,,,,,,,,,4.3,1.4,4.1*25
$GPRMC,225727.00,A,3617.55883246,N,09718.50433139,W,0.052,7.214,100316,999.9000,E,A*1F
$GPGLL,3617.55883246,N,09718.50433139,W,225727.00,A,A*71
$GNGNS,225727.00,3617.55883,N,09718.50433,W,AAN,07,1.4,315.9,-26.0,,*20
$GPGGA,225728.00,3617.55885907,N,09718.50435943,W,1,07,1.4,315.971,M,-25.964,M,,*5B
$PTNL,GGK,225728.00,031016,3617.55885907,N,09718.50435943,W,1,07,4.3,EHT290.008,M*67
$GNGST,225728.00,1.982,4.534,3.146,109.1,3.322,4.406,14.909*7F
$GPZDA,225728.04,10,03,2016,00,00*6D
$GNGSA,A,3,8,9,23,27,7,,,,,,,,4.3,1.4,4.1*19
$GNGSA,A,3,79,,,,,,,,,,,,4.3,1.4,4.1*25
$GPRMC,225728.00,A,3617.55885907,N,09718.50435943,W,0.073,31.447,100316,999.9000,E,A*2D
$GPGLL,3617.55885907,N,09718.50435943,W,225728.00,A,A*75
$GNGNS,225728.00,3617.55886,N,09718.50436,W,AAN,07,1.4,316.0,-26.0,,*25
$GPGGA,225729.00,3617.55887566,N,09718.50438944,W,1,07,1.4,315.992,M,-25.964,M,,*54
$PTNL,GGK,225729.00,031016,3617.55887566,N,09718.50438944,W,1,07,4.3,EHT290.028,M*67
$GNGST,225729.00,1.941,4.534,3.146,109.1,3.322,4.407,14.907*7E
$GPZDA,225729.04,10,03,2016,00,00*6C
$GNGSA,A,3,8,9,23,27,7,,,,,,,,4.3,1.4,4.1*19
$GNGSA,A,3,79,,,,,,,,,,,,4.3,1.4,4.1*25
$GPRMC,225729.00,A,3617.55887566,N,09718.50438944,W,0.084,0.177,100316,999.9000,E,A*13
$GPGLL,3617.55887566,N,09718.50438944,W,225729.00,A,A*77
$GNGNS,225729.00,3617.55888,N,09718.50439,W,AAN,07,1.4,316.0,-26.0,,*25
$GPGGA,225730.00,3617.55888781,N,09718.50440512,W,1,07,1.4,316.051,M,-25.964,M,,*5D
$PTNL,GGK,225730.00,031016,3617.55888781,N,09718.50440512,W,1,07,4.3,EHT290.088,M*61
$GNGST,225730.00,1.869,4.535,3.145,109.1,3.322,4.407,14.903*7B
$GPZDA,225730.04,10,03,2016,00,00*64
$GNGSA,A,3,8,9,23,27,7,,,,,,,,4.3,1.4,4.0*18
$GNGSA,A,3,79,,,,,,,,,,,,4.3,1.4,4.0*24
$GPRMC,225730.00,A,3617.55888781,N,09718.50440512,W,0.087,9.588,100316,999.9000,E,A*11
$GPGLL,3617.55888781,N,09718.50440512,W,225730.00,A,A*7B
$GNGNS,225730.00,3617.55889,N,09718.50441,W,AAN,07,1.4,316.1,-26.0,,*22
$GPGGA,225731.00,3617.55889666,N,09718.50442095,W,1,07,1.4,316.049,M,-25.964,M,,*54
$PTNL,GGK,225731.00,031016,3617.55889666,N,09718.50442095,W,1,07,4.3,EHT290.085,M*6C
$GNGST,225731.00,1.887,4.536,3.144,109.1,3.322,4.408,14.900*74
$GPZDA,225731.04,10,03,2016,00,00*65
$GNGSA,A,3,8,9,23,27,7,,,,,,,,4.3,1.4,4.0*18
$GNGSA,A,3,79,,,,,,,,,,,,4.3,1.4,4.0*24
$GPRMC,225731.00,A,3617.55889666,N,09718.50442095,W,0.064,6.320,100316,999.9000,E,A*17
$GPGLL,3617.55889666,N,09718.50442095,W,225731.00,A,A*7B
$GNGNS,225731.00,3617.55890,N,09718.50442,W,AAN,07,1.4,316.0,-26.0,,*29
$GPGGA,225732.00,3617.55889680,N,09718.50442461,W,1,07,1.4,316.131,M,-25.964,M,,*5E
$PTNL,GGK,225732.00,031016,3617.55889680,N,09718.50442461,W,1,07,4.3,EHT290.167,M*65
$GNGST,225732.00,1.888,4.537,3.144,109.1,3.321,4.409,14.896*75
$GPZDA,225732.04,10,03,2016,00,00*66
$GNGSA,A,3,8,9,23,27,7,,,,,,,,4.3,1.4,4.0*18
$GNGSA,A,3,79,,,,,,,,,,,,4.3,1.4,4.0*24
$GPRMC,225732.00,A,3617.55889680,N,09718.50442461,W,0.056,347.276,100316,999.9000,E,A*16
$GPGLL,3617.55889680,N,09718.50442461,W,225732.00,A,A*7F
$GNGNS,225732.00,3617.55890,N,09718.50442,W,AAN,07,1.4,316.1,-26.0,,*2B
$GPGGA,225733.00,3617.55891137,N,09718.50417195,W,1,09,1.1,316.697,M,-25.964,M,,*53
$PTNL,GGK,225733.00,031016,3617.55891137,N,09718.50417195,W,1,09,2.4,EHT290.733,M*60
$GNGST,225733.00,5.332,2.954,2.838,138.4,2.904,2.890,7.997*45
$GPZDA,225733.04,10,03,2016,00,00*67
$GNGSA,A,3,8,9,23,27,7,28,30,,,,,,2.4,1.1,2.1*12
$GNGSA,A,3,79,,,,,,,,,,,,2.4,1.1,2.1*27
$GPRMC,225733.00,A,3617.55891137,N,09718.50417195,W,0.125,280.843,100316,999.9000,E,A*18
$GPGLL,3617.55891137,N,09718.50417195,W,225733.00,A,A*72
$GNGNS,225733.00,3617.55891,N,09718.50417,W,AAN,09,1.1,316.7,-26.0,,*26
$GPGGA,225734.00,3617.55879117,N,09718.50379463,W,1,09,1.1,317.601,M,-25.964,M,,*5D
$PTNL,GGK,225734.00,031016,3617.55879117,N,09718.50379463,W,1,09,2.4,EHT291.637,M*64
$GNGST,225734.00,3.013,2.954,2.838,138.3,2.903,2.890,7.997*44
$GPZDA,225734.04,10,03,2016,00,00*60
$GNGSA,A,3,8,9,23,27,7,28,30,,,,,,2.4,1.1,2.1*12
$GNGSA,A,3,79,,,,,,,,,,,,2.4,1.1,2.1*27
$GPRMC,225734.00,A,3617.55879117,N,09718.50379463,W,0.111,285.498,100316,999.9000,E,A*10
$GPGLL,3617.55879117,N,09718.50379463,W,225734.00,A,A*72
$GNGNS,225734.00,3617.55879,N,09718.50379,W,AAN,09,1.1,317.6,-26.0,,*28
$GPGGA,225735.00,3617.55867335,N,09718.50355002,W,1,10,1.1,318.258,M,-25.964,M,,*53
$PTNL,GGK,225735.00,031016,3617.55867335,N,09718.50355002,W,1,10,2.3,EHT292.294,M*64
$GNGST,225735.00,9.441,2.931,2.736,119.5,2.784,2.884,7.998*40
$GPZDA,225735.04,10,03,2016,00,00*61
$GNGSA,A,3,8,9,23,27,7,28,30,,,,,,2.3,1.1,2.0*14
$GNGSA,A,3,51,,,,,,,,,,,,2.3,1.1,2.0*2B
$GNGSA,A,3,79,,,,,,,,,,,,2.3,1.1,2.0*21
$GPRMC,225735.00,A,3617.55867335,N,09718.50355002,W,0.080,274.891,100316,999.9000,E,A*13
$GPGLL,3617.55867335,N,09718.50355002,W,225735.00,A,A*73
$GNGNS,225735.00,3617.55867,N,09718.50355,W,AAN,10,1.1,318.3,-26.0,,*2A
$GPGGA,225736.00,3617.55861193,N,09718.50343274,W,1,10,1.1,318.700,M,-25.964,M,,*54
$PTNL,GGK,225736.00,031016,3617.55861193,N,09718.50343274,W,1,10,2.3,EHT292.736,M*66
$GNGST,225736.00,9.309,2.931,2.735,119.5,2.784,2.884,7.998*4B
$GPZDA,225736.04,10,03,2016,00,00*62
$GNGSA,A,3,8,9,23,27,7,28,30,,,,,,2.3,1.1,2.0*14
$GNGSA,A,3,51,,,,,,,,,,,,2.3,1.1,2.0*2B
$GNGSA,A,3,79,,,,,,,,,,,,2.3,1.1,2.0*21
$GPRMC,225736.00,A,3617.55861193,N,09718.50343274,W,0.088,281.866,100316,999.9000,E,A*16
$GPGLL,3617.55861193,N,09718.50343274,W,225736.00,A,A*7C
$GNGNS,225736.00,3617.55861,N,09718.50343,W,AAN,10,1.1,318.7,-26.0,,*2C
$GPGGA,225737.00,3617.55857156,N,09718.50337944,W,1,10,1.1,319.044,M,-25.964,M,,*54
$PTNL,GGK,225737.00,031016,3617.55857156,N,09718.50337944,W,1,10,2.3,EHT293.081,M*6A
$GNGST,225737.00,9.290,2.930,2.735,119.5,2.784,2.884,7.997*45
$GPZDA,225737.04,10,03,2016,00,00*63
$GNGSA,A,3,8,9,23,27,7,28,30,,,,,,2.3,1.1,2.0*14
$GNGSA,A,3,51,,,,,,,,,,,,2.3,1.1,2.0*2B
$GNGSA,A,3,79,,,,,,,,,,,,2.3,1.1,2.0*21
$GPRMC,225737.00,A,3617.55857156,N,09718.50337944,W,0.123,273.959,100316,999.9000,E,A*10
$GPGLL,3617.55857156,N,09718.50337944,W,225737.00,A,A*7A
$GNGNS,225737.00,3617.55857,N,09718.50338,W,AAN,10,1.1,319.0,-26.0,,*22
$GPGGA,225738.00,3617.55854645,N,09718.50335302,W,1,10,1.1,319.326,M,-25.964,M,,*50
$PTNL,GGK,225738.00,031016,3617.55854645,N,09718.50335302,W,1,10,2.3,EHT293.363,M*66
$GNGST,225738.00,9.255,2.930,2.735,119.5,2.783,2.884,7.998*4B
$GPZDA,225738.04,10,03,2016,00,00*6C
$GNGSA,A,3,8,9,23,27,7,28,30,,,,,,2.3,1.1,2.0*14
$GNGSA,A,3,51,,,,,,,,,,,,2.3,1.1,2.0*2B
$GNGSA,A,3,79,,,,,,,,,,,,2.3,1.1,2.0*21
$GPRMC,225738.00,A,3617.55854645,N,09718.50335302,W,0.119,278.129,100316,999.9000,E,A*1E
$GPGLL,3617.55854645,N,09718.50335302,W,225738.00,A,A*79
$GNGNS,225738.00,3617.55855,N,09718.50335,W,AAN,10,1.1,319.3,-26.0,,*21
$GPGGA,225739.00,3617.55853526,N,09718.50334233,W,1,11,1.0,319.558,M,-25.964,M,,*5D
$PTNL,GGK,225739.00,031016,3617.55853526,N,09718.50334233,W,1,11,2.3,EHT293.594,M*6B
$GNGST,225739.00,17.909,2.928,2.636,122.9,2.725,2.845,7.941*7D
$GPZDA,225739.04,10,03,2016,00,00*6D
$GNGSA,A,3,8,9,23,27,7,28,30,,,,,,2.3,1.0,2.0*15
$GNGSA,A,3,51,48,,,,,,,,,,,2.3,1.0,2.0*26
$GNGSA,A,3,79,,,,,,,,,,,,2.3,1.0,2.0*20
$GPRMC,225739.00,A,3617.55853526,N,09718.50334233,W,0.098,292.099,100316,999.9000,E,A*1A
$GPGLL,3617.55853526,N,09718.50334233,W,225739.00,A,A*7B
$GNGNS,225739.00,3617.55854,N,09718.50334,W,AAN,11,1.0,319.6,-26.0,,*25
$GPGGA,225740.00,3617.55853200,N,09718.50334146,W,1,11,1.0,319.735,M,-25.964,M,,*58
$PTNL,GGK,225740.00,031016,3617.55853200,N,09718.50334146,W,1,11,2.3,EHT293.771,M*6E
$GNGST,225740.00,17.996,2.928,2.635,122.9,2.725,2.845,7.942*75
$GPZDA,225740.04,10,03,2016,00,00*63
$GNGSA,A,3,8,9,23,27,7,28,30,,,,,,2.3,1.0,2.0*15
$GNGSA,A,3,51,48,,,,,,,,,,,2.3,1.0,2.0*26
$GNGSA,A,3,79,,,,,,,,,,,,2.3,1.0,2.0*20
$GPRMC,225740.00,A,3617.55853200,N,09718.50334146,W,0.143,298.420,100316,999.9000,E,A*1D
$GPGLL,3617.55853200,N,09718.50334146,W,225740.00,A,A*77
$GNGNS,225740.00,3617.55853,N,09718.50334,W,AAN,11,1.0,319.7,-26.0,,*2D
$GPGGA,225741.00,3617.55848848,N,09718.50335678,W,1,15,0.9,319.967,M,-25.964,M,,*5B
$PTNL,GGK,225741.00,031016,3617.55848848,N,09718.50335678,W,1,15,2.0,EHT294.004,M*6D
$GNGST,225741.00,36.462,2.850,2.462,133.1,2.650,2.676,7.569*7F
$GPZDA,225741.04,10,03,2016,00,00*62
$GNGSA,A,3,8,9,23,27,7,28,30,,,,,,2.0,0.9,1.8*15
$GNGSA,A,3,51,48,,,,,,,,,,,2.0,0.9,1.8*26
$GNGSA,A,3,79,69,88,68,70,,,,,,,,2.0,0.9,1.8*26
$GPRMC,225741.00,A,3617.55848848,N,09718.50335678,W,0.111,307.049,100316,999.9000,E,A*10
$GPGLL,3617.55848848,N,09718.50335678,W,225741.00,A,A*71
$GNGNS,225741.00,3617.55849,N,09718.50336,W,AAN,15,0.9,320.0,-26.0,,*24
$GPGGA,225742.00,3617.55845832,N,09718.50336531,W,1,15,0.9,320.145,M,-25.964,M,,*57
$PTNL,GGK,225742.00,031016,3617.55845832,N,09718.50336531,W,1,15,2.0,EHT294.181,M*6F
$GNGST,225742.00,35.265,2.862,2.496,130.0,2.653,2.717,7.595*70
$GPZDA,225742.05,10,03,2016,00,00*60
$GNGSA,A,3,8,9,23,27,7,28,30,,,,,,2.0,0.9,1.8*15
$GNGSA,A,3,51,48,,,,,,,,,,,2.0,0.9,1.8*26
$GNGSA,A,3,79,69,88,68,70,,,,,,,,2.0,0.9,1.8*26
$GPRMC,225742.00,A,3617.55845832,N,09718.50336531,W,0.087,301.584,100316,999.9000,E,A*12
$GPGLL,3617.55845832,N,09718.50336531,W,225742.00,A,A*7F
$GNGNS,225742.00,3617.55846,N,09718.50337,W,AAN,15,0.9,320.1,-26.0,,*28
$GPGGA,225743.00,3617.55845359,N,09718.50337421,W,1,15,0.9,320.299,M,-25.964,M,,*53
$PTNL,GGK,225743.00,031016,3617.55845359,N,09718.50337421,W,1,15,2.0,EHT294.335,M*64
$GNGST,225743.00,34.213,2.849,2.462,133.1,2.650,2.676,7.569*77
$GPZDA,225743.04,10,03,2016,00,00*60
$GNGSA,A,3,8,9,23,27,7,28,30,,,,,,2.0,0.9,1.8*15
$GNGSA,A,3,51,48,,,,,,,,,,,2.0,0.9,1.8*26
$GNGSA,A,3,79,69,88,68,70,,,,,,,,2.0,0.9,1.8*26
$GPRMC,225743.00,A,3617.55845359,N,09718.50337421,W,0.083,306.156,100316,999.9000,E,A*1C
$GPGLL,3617.55845359,N,09718.50337421,W,225743.00,A,A*79
$GNGNS,225743.00,3617.55845,N,09718.50337,W,AAN,15,0.9,320.3,-26.0,,*28
$GPGGA,225744.00,3617.55846719,N,09718.50337858,W,1,15,0.9,320.419,M,-25.964,M,,*5B
$PTNL,GGK,225744.00,031016,3617.55846719,N,09718.50337858,W,1,15,2.0,EHT294.455,M*63
$GNGST,225744.00,33.358,2.849,2.462,133.1,2.649,2.676,7.569*71
$GPZDA,225744.05,10,03,2016,00,00*66
$GNGSA,A,3,8,9,23,27,7,28,30,,,,,,2.0,0.9,1.8*15
$GNGSA,A,3,51,48,,,,,,,,,,,2.0,0.9,1.8*26
$GNGSA,A,3,79,69,88,68,70,,,,,,,,2.0,0.9,1.8*26
$GPRMC,225744.00,A,3617.55846719,N,09718.50337858,W,0.129,319.188,100316,999.9000,E,A*16
$GPGLL,3617.55846719,N,09718.50337858,W,225744.00,A,A*7F
$GNGNS,225744.00,3617.55847,N,09718.50338,W,AAN,15,0.9,320.4,-26.0,,*25
$GPGGA,225745.00,3617.55848588,N,09718.50338271,W,1,15,0.9,320.534,M,-25.964,M,,*5E
$PTNL,GGK,225745.00,031016,3617.55848588,N,09718.50338271,W,1,15,2.0,EHT294.571,M*6F
$GNGST,225745.00,32.598,2.849,2.461,133.1,2.649,2.675,7.569*7B
$GPZDA,225745.04,10,03,2016,00,00*66
$GNGSA,A,3,8,9,23,27,7,28,30,,,,,,2.0,0.9,1.8*15
$GNGSA,A,3,51,48,,,,,,,,,,,2.0,0.9,1.8*26
$GNGSA,A,3,79,69,88,68,70,,,,,,,,2.0,0.9,1.8*26
$GPRMC,225745.00,A,3617.55848588,N,09718.50338271,W,0.095,291.899,100316,999.9000,E,A*13
$GPGLL,3617.55848588,N,09718.50338271,W,225745.00,A,A*74
$GNGNS,225745.00,3617.55849,N,09718.50338,W,AAN,15,0.9,320.5,-26.0,,*2B
$GPGGA,225746.00,3617.55851031,N,09718.50338833,W,1,15,0.9,320.620,M,-25.964,M,,*58
$PTNL,GGK,225746.00,031016,3617.55851031,N,09718.50338833,W,1,15,2.0,EHT294.657,M*68
$GNGST,225746.00,31.726,2.849,2.461,133.0,2.649,2.675,7.569*7D
$GPZDA,225746.05,10,03,2016,00,00*64
$GNGSA,A,3,8,9,23,27,7,28,30,,,,,,2.0,0.9,1.8*15
$GNGSA,A,3,51,48,,,,,,,,,,,2.0,0.9,1.8*26
$GNGSA,A,3,79,69,88,68,70,,,,,,,,2.0,0.9,1.8*26
$GPRMC,225746.00,A,3617.55851031,N,09718.50338833,W,0.119,309.084,100316,999.9000,E,A*12
$GPGLL,3617.55851031,N,09718.50338833,W,225746.00,A,A*74
$GNGNS,225746.00,3617.55851,N,09718.50339,W,AAN,15,0.9,320.6,-26.0,,*23
$GPGGA,225747.00,3617.55849248,N,09718.50335035,W,1,17,0.8,320.679,M,-25.964,M,,*50
$PTNL,GGK,225747.00,031016,3617.55849248,N,09718.50335035,W,1,17,1.8,EHT294.715,M*61
$GNGST,225747.00,25.596,2.530,2.444,155.5,2.516,2.459,6.927*73
$GPZDA,225747.05,10,03,2016,00,00*65
$GNGSA,A,3,8,9,23,27,7,28,30,,,,,,1.8,0.8,1.6*11
$GNGSA,A,3,51,48,,,,,,,,,,,1.8,0.8,1.6*22
$GNGSA,A,3,79,69,88,68,70,,,,,,,,1.8,0.8,1.6*22
$GNGSA,A,3,114,,,,,,,,,,,,1.8,0.8,1.6*1E
$GPRMC,225747.00,A,3617.55849248,N,09718.50335035,W,0.091,300.038,100316,999.9000,E,A*1A
$GPGLL,3617.55849248,N,09718.50335035,W,225747.00,A,A*73
$GNGNS,225747.00,3617.55849,N,09718.50335,W,AAA,17,0.8,320.7,-26.0,,*2A
$GPGGA,225748.00,3617.55847786,N,09718.50332613,W,1,17,0.8,320.703,M,-25.964,M,,*5F
$PTNL,GGK,225748.00,031016,3617.55847786,N,09718.50332613,W,1,17,1.8,EHT294.739,M*6C
$GNGST,225748.00,24.895,2.530,2.444,155.3,2.515,2.459,6.927*76
$GPZDA,225748.05,10,03,2016,00,00*6A
$GNGSA,A,3,8,9,23,27,7,28,30,,,,,,1.8,0.8,1.6*11
$GNGSA,A,3,51,48,,,,,,,,,,,1.8,0.8,1.6*22
$GNGSA,A,3,79,69,88,68,70,,,,,,,,1.8,0.8,1.6*22
$GNGSA,A,3,114,,,,,,,,,,,,1.8,0.8,1.6*1E
$GPRMC,225748.00,A,3617.55847786,N,09718.50332613,W,0.104,302.560,100316,999.9000,E,A*1E
$GPGLL,3617.55847786,N,09718.50332613,W,225748.00,A,A*70
$GNGNS,225748.00,3617.55848,N,09718.50333,W,AAA,17,0.8,320.7,-26.0,,*22
$GPGGA,225749.00,3617.55847005,N,09718.50331770,W,1,17,0.8,320.733,M,-25.964,M,,*56
$PTNL,GGK,225749.00,031016,3617.55847005,N,09718.50331770,W,1,17,1.8,EHT294.769,M*63
$GNGST,225749.00,24.235,2.530,2.444,155.4,2.515,2.459,6.926*71
$GPZDA,225749.05,10,03,2016,00,00*6B
$GNGSA,A,3,8,9,23,27,7,28,30,,,,,,1.8,0.8,1.6*11
$GNGSA,A,3,51,48,,,,,,,,,,,1.8,0.8,1.6*22
$GNGSA,A,3,79,69,88,68,70,,,,,,,,1.8,0.8,1.6*22
$GNGSA,A,3,114,,,,,,,,,,,,1.8,0.8,1.6*1E
$GPRMC,225749.00,A,3617.55847005,N,09718.50331770,W,0.096,283.858,100316,999.9000,E,A*10
$GPGLL,3617.55847005,N,09718.50331770,W,225749.00,A,A*7A
$GNGNS,225749.00,3617.55847,N,09718.50332,W,AAA,17,0.8,320.7,-26.0,,*2D
$GPGGA,225750.00,3617.55847272,N,09718.50330852,W,1,17,0.8,320.742,M,-25.964,M,,*54
$PTNL,GGK,225750.00,031016,3617.55847272,N,09718.50330852,W,1,17,1.8,EHT294.778,M*67
$GNGST,225750.00,23.695,2.529,2.444,155.3,2.515,2.459,6.927*7E
$GPZDA,225750.05,10,03,2016,00,00*63
$GNGSA,A,3,8,9,23,27,7,28,30,,,,,,1.8,0.8,1.6*11
$GNGSA,A,3,51,48,,,,,,,,,,,1.8,0.8,1.6*22
$GNGSA,A,3,79,69,88,68,70,,,,,,,,1.8,0.8,1.6*22
$GNGSA,A,3,114,,,,,,,,,,,,1.8,0.8,1.6*1E
$GPRMC,225750.00,A,3617.55847272,N,09718.50330852,W,0.063,326.339,100316,999.9000,E,A*1C
$GPGLL,3617.55847272,N,09718.50330852,W,225750.00,A,A*7E
$GNGNS,225750.00,3617.55847,N,09718.50331,W,AAA,17,0.8,320.7,-26.0,,*26
$GPGGA,225751.00,3617.55848086,N,09718.50330989,W,1,18,0.7,320.768,M,-25.964,M,,*5C
$PTNL,GGK,225751.00,031016,3617.55848086,N,09718.50330989,W,1,18,1.4,EHT294.805,M*61
$GNGST,225751.00,113.595,2.529,2.415,155.0,2.509,2.436,6.841*4C
$GPZDA,225751.05,10,03,2016,00,00*62
$GNGSA,A,3,8,9,23,27,7,28,30,16,,,,,1.4,0.7,1.2*11
$GNGSA,A,3,51,48,,,,,,,,,,,1.4,0.7,1.2*25
$GNGSA,A,3,79,69,88,68,70,,,,,,,,1.4,0.7,1.2*25
$GNGSA,A,3,114,,,,,,,,,,,,1.4,0.7,1.2*19
$GPRMC,225751.00,A,3617.55848086,N,09718.50330989,W,0.094,281.753,100316,999.9000,E,A*10
$GPGLL,3617.55848086,N,09718.50330989,W,225751.00,A,A*7E
$GNGNS,225751.00,3617.55848,N,09718.50331,W,AAA,18,0.7,320.8,-26.0,,*27
$GPGGA,225752.00,3617.55849075,N,09718.50331111,W,1,18,0.7,320.782,M,-25.964,M,,*5E
$PTNL,GGK,225752.00,031016,3617.55849075,N,09718.50331111,W,1,18,1.4,EHT294.819,M*6A
$GNGST,225752.00,112.414,2.529,2.413,154.9,2.509,2.435,6.836*4B
$GPZDA,225752.05,10,03,2016,00,00*61
$GNGSA,A,3,8,9,23,27,7,28,30,16,,,,,1.4,0.7,1.2*11
$GNGSA,A,3,51,48,,,,,,,,,,,1.4,0.7,1.2*25
$GNGSA,A,3,79,69,88,68,70,,,,,,,,1.4,0.7,1.2*25
$GNGSA,A,3,114,,,,,,,,,,,,1.4,0.7,1.2*19
$GPRMC,225752.00,A,3617.55849075,N,09718.50331111,W,0.057,301.988,100316,999.9000,E,A*18
$GPGLL,3617.55849075,N,09718.50331111,W,225752.00,A,A*78
$GNGNS,225752.00,3617.55849,N,09718.50331,W,AAA,18,0.7,320.8,-26.0,,*25
$GPGGA,225753.00,3617.55850334,N,09718.50330811,W,1,18,0.7,320.803,M,-25.964,M,,*5F
$PTNL,GGK,225753.00,031016,3617.55850334,N,09718.50330811,W,1,18,1.4,EHT294.839,M*6F
$GNGST,225753.00,109.781,2.529,2.413,154.8,2.509,2.435,6.836*4E
$GPZDA,225753.05,10,03,2016,00,00*60
$GNGSA,A,3,8,9,23,27,7,28,30,16,,,,,1.4,0.7,1.2*11
$GNGSA,A,3,51,48,,,,,,,,,,,1.4,0.7,1.2*25
$GNGSA,A,3,79,69,88,68,70,,,,,,,,1.4,0.7,1.2*25
$GNGSA,A,3,114,,,,,,,,,,,,1.4,0.7,1.2*19
$GPRMC,225753.00,A,3617.55850334,N,09718.50330811,W,0.047,285.860,100316,999.9000,E,A*14
$GPGLL,3617.55850334,N,09718.50330811,W,225753.00,A,A*7F
$GNGNS,225753.00,3617.55850,N,09718.50331,W,AAA,18,0.7,320.8,-26.0,,*2C
$GPGGA,225754.00,3617.55852913,N,09718.50330015,W,1,18,0.7,320.848,M,-25.964,M,,*56
$PTNL,GGK,225754.00,031016,3617.55852913,N,09718.50330015,W,1,18,1.4,EHT294.884,M*6F
$GNGST,225754.00,109.703,2.529,2.415,154.7,2.509,2.436,6.842*4A
$GPZDA,225754.05,10,03,2016,00,00*67
$GNGSA,A,3,8,9,23,27,7,28,30,16,,,,,1.4,0.7,1.2*11
$GNGSA,A,3,51,48,,,,,,,,,,,1.4,0.7,1.2*25
$GNGSA,A,3,79,69,88,68,70,,,,,,,,1.4,0.7,1.2*25
$GNGSA,A,3,114,,,,,,,,,,,,1.4,0.7,1.2*19
$GPRMC,225754.00,A,3617.55852913,N,09718.50330015,W,0.081,281.110,100316,999.9000,E,A*12
$GPGLL,3617.55852913,N,09718.50330015,W,225754.00,A,A*79
$GNGNS,225754.00,3617.55853,N,09718.50330,W,AAA,18,0.7,320.8,-26.0,,*29
$GPGGA,225755.00,3617.55839901,N,09718.50329420,W,2,18,0.7,322.173,M,-25.964,M,5.0,0138*72
$PTNL,GGK,225755.00,031016,3617.55839901,N,09718.50329420,W,5,18,1.5,EHT296.209,M*62
$GNGST,225755.00,29.639,0.455,0.427,19.6,0.452,0.430,1.140*47
$GPZDA,225755.04,10,03,2016,00,00*67
$GNGSA,A,3,8,9,23,27,7,28,30,16,,,,,1.5,0.7,1.3*11
$GNGSA,A,3,51,48,,,,,,,,,,,1.5,0.7,1.3*25
$GNGSA,A,3,79,69,88,68,70,,,,,,,,1.5,0.7,1.3*25
$GNGSA,A,3,114,,,,,,,,,,,,1.5,0.7,1.3*19
$GPRMC,225755.00,A,3617.55839901,N,09718.50329420,W,0.094,293.797,100316,999.9000,E,D*1C
$GPGLL,3617.55839901,N,09718.50329420,W,225755.00,A,D*79
$GNGNS,225755.00,3617.55840,N,09718.50329,W,DDD,18,0.7,322.2,-26.0,,*2F
$GPGNS,225755.00,,,,,,8,,,,4.2,138*4B
$GLGNS,225755.00,,,,,,5,,,,0.0,138*5C
$BDGNS,225755.00,,,,,,1,,,,0.0,138*55
$GPGGA,225756.00,3617.55851639,N,09718.50329265,W,2,18,0.7,322.772,M,-25.964,M,6.0,0138*78
$PTNL,GGK,225756.00,031016,3617.55851639,N,09718.50329265,W,5,18,1.4,EHT296.808,M*66
$GNGST,225756.00,103.842,0.474,0.438,21.9,0.469,0.443,1.255*7D
$GPZDA,225756.04,10,03,2016,00,00*64
$GNGSA,A,3,8,9,23,27,7,28,30,16,,,,,1.4,0.7,1.2*11
$GNGSA,A,3,51,48,,,,,,,,,,,1.4,0.7,1.2*25
$GNGSA,A,3,79,69,88,68,70,,,,,,,,1.4,0.7,1.2*25
$GNGSA,A,3,114,,,,,,,,,,,,1.4,0.7,1.2*19
$GPRMC,225756.00,A,3617.55851639,N,09718.50329265,W,0.080,282.480,100316,999.9000,E,D*12
$GPGLL,3617.55851639,N,09718.50329265,W,225756.00,A,D*77
$GNGNS,225756.00,3617.55852,N,09718.50329,W,DDD,18,0.7,322.8,-26.0,,*25
$GPGNS,225756.00,,,,,,8,,,,5.2,138*49
$GLGNS,225756.00,,,,,,5,,,,0.0,138*5F
$BDGNS,225756.00,,,,,,1,,,,0.0,138*56
$GPGGA,225757.00,3617.55863574,N,09718.50323651,W,2,18,0.7,322.953,M,-25.964,M,7.0,0138*77
$PTNL,GGK,225757.00,031016,3617.55863574,N,09718.50323651,W,5,18,1.4,EHT296.989,M*6D
$GNGST,225757.00,103.945,0.474,0.437,21.6,0.469,0.443,1.254*7B
$GPZDA,225757.04,10,03,2016,00,00*65
$GNGSA,A,3,8,9,23,27,7,28,30,16,,,,,1.4,0.7,1.2*11
$GNGSA,A,3,51,48,,,,,,,,,,,1.4,0.7,1.2*25
$GNGSA,A,3,79,69,88,68,70,,,,,,,,1.4,0.7,1.2*25
$GNGSA,A,3,114,,,,,,,,,,,,1.4,0.7,1.2*19
$GPRMC,225757.00,A,3617.55863574,N,09718.50323651,W,0.098,296.818,100316,999.9000,E,D*10
$GPGLL,3617.55863574,N,09718.50323651,W,225757.00,A,D*74
$GNGNS,225757.00,3617.55864,N,09718.50324,W,DDD,18,0.7,323.0,-26.0,,*25
$GPGNS,225757.00,,,,,,8,,,,6.2,138*4B
$GLGNS,225757.00,,,,,,5,,,,0.0,138*5E
$BDGNS,225757.00,,,,,,1,,,,0.0,138*57
$GPGGA,225758.00,3617.55870977,N,09718.50319647,W,2,18,0.7,323.012,M,-25.964,M,6.0,0138*77
$PTNL,GGK,225758.00,031016,3617.55870977,N,09718.50319647,W,5,18,1.4,EHT297.048,M*64
$GNGST,225758.00,103.985,0.467,0.429,22.4,0.462,0.435,1.225*78
$GPZDA,225758.04,10,03,2016,00,00*6A
$GNGSA,A,3,8,9,23,27,7,28,30,16,,,,,1.4,0.7,1.2*11
$GNGSA,A,3,51,48,,,,,,,,,,,1.4,0.7,1.2*25
$GNGSA,A,3,79,69,88,68,70,,,,,,,,1.4,0.7,1.2*25
$GNGSA,A,3,114,,,,,,,,,,,,1.4,0.7,1.2*19
$GPRMC,225758.00,A,3617.55870977,N,09718.50319647,W,0.084,287.666,100316,999.9000,E,D*16
$GPGLL,3617.55870977,N,09718.50319647,W,225758.00,A,D*78
$GNGNS,225758.00,3617.55871,N,09718.50320,W,DDD,18,0.7,323.0,-26.0,,*2A
$GPGNS,225758.00,,,,,,8,,,,3.6,138*45
$GLGNS,225758.00,,,,,,5,,,,0.0,138*51
$BDGNS,225758.00,,,,,,1,,,,0.0,138*58
$GPGGA,225759.00,3617.55860849,N,09718.50315803,W,2,18,0.7,323.068,M,-25.964,M,7.0,0138*75
$PTNL,GGK,225759.00,031016,3617.55860849,N,09718.50315803,W,5,18,1.4,EHT297.104,M*63
$GNGST,225759.00,102.616,0.452,0.401,52.4,0.421,0.434,1.212*74
$GPZDA,225759.04,10,03,2016,00,00*6B
$GNGSA,A,3,8,9,23,27,7,28,30,16,,,,,1.4,0.7,1.2*11
$GNGSA,A,3,51,48,,,,,,,,,,,1.4,0.7,1.2*25
$GNGSA,A,3,79,69,88,68,70,,,,,,,,1.4,0.7,1.2*25
$GNGSA,A,3,114,,,,,,,,,,,,1.4,0.7,1.2*19
$GPRMC,225759.00,A,3617.55860849,N,09718.50315803,W,0.106,298.431,100316,999.9000,E,D*1D
$GPGLL,3617.55860849,N,09718.50315803,W,225759.00,A,D*76
$GNGNS,225759.00,3617.55861,N,09718.50316,W,DDD,18,0.7,323.1,-26.0,,*2E
$GPGNS,225759.00,,,,,,8,,,,4.2,138*47
$GLGNS,225759.00,,,,,,5,,,,0.0,138*50
$BDGNS,225759.00,,,,,,1,,,,0.0,138*59
$GPGGA,225800.00,3617.55841920,N,09718.50322567,W,2,18,0.7,323.143,M,-25.964,M,4.0,0138*7B
$PTNL,GGK,225800.00,031016,3617.55841920,N,09718.50322567,W,5,18,1.4,EHT297.179,M*6C
$GNGST,225800.00,96.285,0.439,0.400,52.8,0.414,0.425,1.211*40
$GPZDA,225800.05,10,03,2016,00,00*69
$GNGSA,A,3,8,9,23,27,7,28,30,16,,,,,1.4,0.7,1.2*11
$GNGSA,A,3,51,48,,,,,,,,,,,1.4,0.7,1.2*25
$GNGSA,A,3,79,69,88,68,70,,,,,,,,1.4,0.7,1.2*25
$GNGSA,A,3,114,,,,,,,,,,,,1.4,0.7,1.2*19
$GPRMC,225800.00,A,3617.55841920,N,09718.50322567,W,0.080,288.607,100316,999.9000,E,D*11
$GPGLL,3617.55841920,N,09718.50322567,W,225800.00,A,D*73
$GNGNS,225800.00,3617.55842,N,09718.50323,W,DDD,18,0.7,323.1,-26.0,,*2A
$GPGNS,225800.00,,,,,,8,,,,3.2,138*43
$GLGNS,225800.00,,,,,,5,,,,0.0,138*53
$BDGNS,225800.00,,,,,,1,,,,0.0,138*5A
$GPGGA,225801.00,3617.55829865,N,09718.50328140,W,2,18,0.7,323.116,M,-25.964,M,5.0,0138*7E
$PTNL,GGK,225801.00,031016,3617.55829865,N,09718.50328140,W,5,18,1.4,EHT297.153,M*60
$GNGST,225801.00,97.461,0.443,0.404,52.8,0.419,0.429,1.224*42
$GPZDA,225801.05,10,03,2016,00,00*68
$GNGSA,A,3,8,9,23,27,7,28,30,16,,,,,1.4,0.7,1.2*11
$GNGSA,A,3,51,48,,,,,,,,,,,1.4,0.7,1.2*25
$GNGSA,A,3,79,69,88,68,70,,,,,,,,1.4,0.7,1.2*25
$GNGSA,A,3,114,,,,,,,,,,,,1.4,0.7,1.2*19
$GPRMC,225801.00,A,3617.55829865,N,09718.50328140,W,0.080,304.451,100316,999.9000,E,D*11
$GPGLL,3617.55829865,N,09718.50328140,W,225801.00,A,D*77
$GNGNS,225801.00,3617.55830,N,09718.50328,W,DDD,18,0.7,323.1,-26.0,,*25
$GPGNS,225801.00,,,,,,8,,,,4.2,138*45
$GLGNS,225801.00,,,,,,5,,,,0.0,138*52
$BDGNS,225801.00,,,,,,1,,,,0.0,138*5B
$GPGGA,225802.00,3617.55823224,N,09718.50331184,W,2,18,0.7,323.041,M,-25.964,M,6.0,0138*78
$PTNL,GGK,225802.00,031016,3617.55823224,N,09718.50331184,W,5,18,1.4,EHT297.078,M*6E
$GNGST,225802.00,94.975,0.447,0.408,52.6,0.423,0.433,1.234*4F
$GPZDA,225802.05,10,03,2016,00,00*6B
$GNGSA,A,3,8,9,23,27,7,28,30,16,,,,,1.4,0.7,1.2*11
$GNGSA,A,3,51,48,,,,,,,,,,,1.4,0.7,1.2*25
$GNGSA,A,3,79,69,88,68,70,,,,,,,,1.4,0.7,1.2*25
$GNGSA,A,3,114,,,,,,,,,,,,1.4,0.7,1.2*19
$GPRMC,225802.00,A,3617.55823224,N,09718.50331184,W,0.079,300.148,100316,999.9000,E,D*18
$GPGLL,3617.55823224,N,09718.50331184,W,225802.00,A,D*71
$GNGNS,225802.00,3617.55823,N,09718.50331,W,DDD,18,0.7,323.0,-26.0,,*2D
$GPGNS,225802.00,,,,,,8,,,,5.2,138*47
$GLGNS,225802.00,,,,,,5,,,,0.0,138*51
$BDGNS,225802.00,,,,,,1,,,,0.0,138*58
$GPGGA,225803.00,3617.55819447,N,09718.50332922,W,2,18,0.7,322.957,M,-25.964,M,7.0,0138*7A
$PTNL,GGK,225803.00,031016,3617.55819447,N,09718.50332922,W,5,18,1.4,EHT296.994,M*68
$GNGST,225803.00,93.555,0.451,0.411,52.8,0.426,0.437,1.239*4A
$GPZDA,225803.04,10,03,2016,00,00*6B
$GNGSA,A,3,8,9,23,27,7,28,30,16,,,,,1.4,0.7,1.2*11
$GNGSA,A,3,51,48,,,,,,,,,,,1.4,0.7,1.2*25
$GNGSA,A,3,79,69,88,68,70,,,,,,,,1.4,0.7,1.2*25
$GNGSA,A,3,114,,,,,,,,,,,,1.4,0.7,1.2*19
$GPRMC,225803.00,A,3617.55819447,N,09718.50332922,W,0.084,288.654,100316,999.9000,E,D*1D
$GPGLL,3617.55819447,N,09718.50332922,W,225803.00,A,D*7D
$GNGNS,225803.00,3617.55819,N,09718.50333,W,DDD,18,0.7,323.0,-26.0,,*27
$GPGNS,225803.00,,,,,,8,,,,6.2,138*45
$GLGNS,225803.00,,,,,,5,,,,0.0,138*50
$BDGNS,225803.00,,,,,,1,,,,0.0,138*59
$GPGGA,225804.00,3617.55818238,N,09718.50333667,W,2,18,0.7,322.871,M,-25.964,M,7.0,0138*78
$PTNL,GGK,225804.00,031016,3617.55818238,N,09718.50333667,W,5,18,1.4,EHT296.907,M*65
$GNGST,225804.00,98.094,0.447,0.405,51.9,0.421,0.432,1.210*47
$GPZDA,225804.05,10,03,2016,00,00*6D
$GNGSA,A,3,8,9,23,27,7,28,30,16,,,,,1.4,0.7,1.2*11
$GNGSA,A,3,51,48,,,,,,,,,,,1.4,0.7,1.2*25
$GNGSA,A,3,79,69,88,68,70,,,,,,,,1.4,0.7,1.2*25
$GNGSA,A,3,114,,,,,,,,,,,,1.4,0.7,1.2*19
$GPRMC,225804.00,A,3617.55818238,N,09718.50333667,W,0.072,304.153,100316,999.9000,E,D*16
$GPGLL,3617.55818238,N,09718.50333667,W,225804.00,A,D*7A
$GNGNS,225804.00,3617.55818,N,09718.50334,W,DDD,18,0.7,322.9,-26.0,,*2E
$GPGNS,225804.00,,,,,,8,,,,4.2,138*40
$GLGNS,225804.00,,,,,,5,,,,0.0,138*57
$BDGNS,225804.00,,,,,,1,,,,0.0,138*5E
$GPGGA,225805.00,3617.55807753,N,09718.50327926,W,2,18,0.6,322.820,M,-25.964,M,7.0,0138*75
$PTNL,GGK,225805.00,031016,3617.55807753,N,09718.50327926,W,5,18,1.3,EHT296.856,M*6F
$GNGST,225805.00,82.572,0.429,0.387,58.6,0.399,0.418,1.091*44
$GPZDA,225805.04,10,03,2016,00,00*6D
$GNGSA,A,3,8,9,23,27,7,28,30,16,,,,,1.3,0.6,1.1*14
$GNGSA,A,3,51,48,,,,,,,,,,,1.3,0.6,1.1*20
$GNGSA,A,3,79,69,88,68,70,,,,,,,,1.3,0.6,1.1*20
$GNGSA,A,3,114,,,,,,,,,,,,1.3,0.6,1.1*1C
$GPRMC,225805.00,A,3617.55807753,N,09718.50327926,W,0.118,286.040,100316,999.9000,E,D*1B
$GPGLL,3617.55807753,N,09718.50327926,W,225805.00,A,D*72
$GNGNS,225805.00,3617.55808,N,09718.50328,W,DDD,18,0.6,322.8,-26.0,,*23
$GPGNS,225805.00,,,,,,8,,,,4.2,138*41
$GLGNS,225805.00,,,,,,5,,,,0.0,138*56
$BDGNS,225805.00,,,,,,1,,,,0.0,138*5F
$GPGGA,225806.00,3617.55801365,N,09718.50324714,W,2,18,0.6,322.838,M,-25.964,M,4.0,0138*77
$PTNL,GGK,225806.00,031016,3617.55801365,N,09718.50324714,W,5,18,1.3,EHT296.875,M*66
$GNGST,225806.00,83.603,0.421,0.387,56.6,0.398,0.411,1.093*4F
$GPZDA,225806.05,10,03,2016,00,00*6F
$GNGSA,A,3,8,9,23,27,7,28,30,16,,,,,1.3,0.6,1.1*14
$GNGSA,A,3,51,48,,,,,,,,,,,1.3,0.6,1.1*20
$GNGSA,A,3,79,69,88,68,70,,,,,,,,1.3,0.6,1.1*20
$GNGSA,A,3,114,,,,,,,,,,,,1.3,0.6,1.1*1C
$GPRMC,225806.00,A,3617.55801365,N,09718.50324714,W,0.057,325.278,100316,999.9000,E,D*18
$GPGLL,3617.55801365,N,09718.50324714,W,225806.00,A,D*7A
$GNGNS,225806.00,3617.55801,N,09718.50325,W,DDD,18,0.6,322.8,-26.0,,*24
$GPGNS,225806.00,,,,,,8,,,,3.2,138*45
$GLGNS,225806.00,,,,,,5,,,,0.0,138*55
$BDGNS,225806.00,,,,,,1,,,,0.0,138*5C
$GPGGA,225807.00,3617.55797650,N,09718.50323372,W,2,18,0.6,322.858,M,-25.964,M,5.0,0138*71
$PTNL,GGK,225807.00,031016,3617.55797650,N,09718.50323372,W,5,18,1.3,EHT296.894,M*68
$GNGST,225807.00,82.699,0.425,0.391,57.1,0.402,0.415,1.105*47
$GPZDA,225807.04,10,03,2016,00,00*6F
$GNGSA,A,3,8,9,23,27,7,28,30,16,,,,,1.3,0.6,1.1*14
$GNGSA,A,3,51,48,,,,,,,,,,,1.3,0.6,1.1*20
$GNGSA,A,3,79,69,88,68,70,,,,,,,,1.3,0.6,1.1*20
$GNGSA,A,3,114,,,,,,,,,,,,1.3,0.6,1.1*1C
$GPRMC,225807.00,A,3617.55797650,N,09718.50323372,W,0.069,295.302,100316,999.9000,E,D*12
$GPGLL,3617.55797650,N,09718.50323372,W,225807.00,A,D*7B
$GNGNS,225807.00,3617.55798,N,09718.50323,W,DDD,18,0.6,322.9,-26.0,,*2D
$GPGNS,225807.00,,,,,,8,,,,4.2,138*43
$GLGNS,225807.00,,,,,,5,,,,0.0,138*54
$BDGNS,225807.00,,,,,,1,,,,0.0,138*5D
$GPGGA,225808.00,3617.55795663,N,09718.50323472,W,2,18,0.6,322.903,M,-25.964,M,6.0,0138*77
$PTNL,GGK,225808.00,031016,3617.55795663,N,09718.50323472,W,5,18,1.3,EHT296.940,M*6A
$GNGST,225808.00,76.352,0.429,0.395,57.1,0.405,0.419,1.113*45
$GPZDA,225808.05,10,03,2016,00,00*61
$GNGSA,A,3,8,9,23,27,7,28,30,16,,,,,1.3,0.6,1.1*14
$GNGSA,A,3,51,48,,,,,,,,,,,1.3,0.6,1.1*20
$GNGSA,A,3,79,69,88,68,70,,,,,,,,1.3,0.6,1.1*20
$GNGSA,A,3,114,,,,,,,,,,,,1.3,0.6,1.1*1C
$GPRMC,225808.00,A,3617.55795663,N,09718.50323472,W,0.080,299.690,100316,999.9000,E,D*1D
$GPGLL,3617.55795663,N,09718.50323472,W,225808.00,A,D*71
$GNGNS,225808.00,3617.55796,N,09718.50323,W,DDD,18,0.6,322.9,-26.0,,*2C
$GPGNS,225808.00,,,,,,8,,,,5.1,138*4E
$GLGNS,225808.00,,,,,,5,,,,0.0,138*5B
$BDGNS,225808.00,,,,,,1,,,,0.0,138*52
$GPGGA,225809.00,3617.55794117,N,09718.50323385,W,2,17,0.7,322.921,M,-25.964,M,7.0,0138*73
$PTNL,GGK,225809.00,031016,3617.55794117,N,09718.50323385,W,5,17,1.5,EHT296.957,M*6E
$GNGST,225809.00,7.201,0.434,0.397,58.1,0.408,0.424,1.120*77
$GPZDA,225809.04,10,03,2016,00,00*61
$GNGSA,A,3,8,9,23,27,7,28,30,,,,,,1.5,0.7,1.3*16
$GNGSA,A,3,51,48,,,,,,,,,,,1.5,0.7,1.3*25
$GNGSA,A,3,79,69,88,68,70,,,,,,,,1.5,0.7,1.3*25
$GNGSA,A,3,114,,,,,,,,,,,,1.5,0.7,1.3*19
$GPRMC,225809.00,A,3617.55794117,N,09718.50323385,W,0.070,302.855,100316,999.9000,E,D*1D
$GPGLL,3617.55794117,N,09718.50323385,W,225809.00,A,D*7A
$GNGNS,225809.00,3617.55794,N,09718.50323,W,DDD,17,0.7,322.9,-26.0,,*21
$GPGNS,225809.00,,,,,,7,,,,6.2,138*40
$GLGNS,225809.00,,,,,,5,,,,0.0,138*5A
$BDGNS,225809.00,,,,,,1,,,,0.0,138*53
$GPGGA,225810.00,3617.55794011,N,09718.50323316,W,2,17,0.7,322.939,M,-25.964,M,7.0,0138*7F
$PTNL,GGK,225810.00,031016,3617.55794011,N,09718.50323316,W,5,17,1.5,EHT296.976,M*68
$GNGST,225810.00,7.210,0.430,0.392,56.8,0.404,0.419,1.094*75
$GPZDA,225810.05,10,03,2016,00,00*68
$GNGSA,A,3,8,9,23,27,7,28,30,,,,,,1.5,0.7,1.3*16
$GNGSA,A,3,51,48,,,,,,,,,,,1.5,0.7,1.3*25
$GNGSA,A,3,79,69,88,68,70,,,,,,,,1.5,0.7,1.3*25
$GNGSA,A,3,114,,,,,,,,,,,,1.5,0.7,1.3*19
$GPRMC,225810.00,A,3617.55794011,N,09718.50323316,W,0.092,297.548,100316,999.9000,E,D*18
$GPGLL,3617.55794011,N,09718.50323316,W,225810.00,A,D*7F
$GNGNS,225810.00,3617.55794,N,09718.50323,W,DDD,17,0.7,322.9,-26.0,,*29
$GPGNS,225810.00,,,,,,7,,,,4.2,138*4A
$GLGNS,225810.00,,,,,,5,,,,0.0,138*52
$BDGNS,225810.00,,,,,,1,,,,0.0,138*5B
$GPGGA,225811.00,3617.55796399,N,09718.50321874,W,2,20,0.6,322.996,M,-25.964,M,7.0,0138*72
$PTNL,GGK,225811.00,031016,3617.55796399,N,09718.50321874,W,5,20,1.3,EHT297.032,M*6F
$GNGST,225811.00,14.997,0.411,0.359,53.2,0.379,0.393,1.018*45
$GPZDA,225811.05,10,03,2016,00,00*69
$GNGSA,A,3,8,9,23,27,7,28,30,,,,,,1.3,0.6,1.1*13
$GNGSA,A,3,51,48,,,,,,,,,,,1.3,0.6,1.1*20
$GNGSA,A,3,79,69,88,68,70,78,81,87,,,,,1.3,0.6,1.1*29
$GNGSA,A,3,114,,,,,,,,,,,,1.3,0.6,1.1*1C
$GPRMC,225811.00,A,3617.55796399,N,09718.50321874,W,0.098,302.841,100316,999.9000,E,D*16
$GPGLL,3617.55796399,N,09718.50321874,W,225811.00,A,D*72
$GNGNS,225811.00,3617.55796,N,09718.50322,W,DDD,20,0.6,323.0,-26.0,,*26
$GPGNS,225811.00,,,,,,7,,,,4.2,138*4B
$GLGNS,225811.00,,,,,,8,,,,0.0,138*5E
$BDGNS,225811.00,,,,,,1,,,,0.0,138*5A
$GPGGA,225812.00,3617.55799028,N,09718.50320060,W,2,20,0.6,323.034,M,-25.964,M,4.0,0138*78
$PTNL,GGK,225812.00,031016,3617.55799028,N,09718.50320060,W,5,20,1.3,EHT297.070,M*60
$GNGST,225812.00,14.873,0.405,0.359,51.4,0.377,0.387,1.022*4E
$GPZDA,225812.05,10,03,2016,00,00*6A
$GNGSA,A,3,8,9,23,27,7,28,30,,,,,,1.3,0.6,1.1*13
$GNGSA,A,3,51,48,,,,,,,,,,,1.3,0.6,1.1*20
$GNGSA,A,3,79,69,88,68,70,78,81,87,,,,,1.3,0.6,1.1*29
$GNGSA,A,3,114,,,,,,,,,,,,1.3,0.6,1.1*1C
$GPRMC,225812.00,A,3617.55799028,N,09718.50320060,W,0.069,313.457,100316,999.9000,E,D*1A
$GPGLL,3617.55799028,N,09718.50320060,W,225812.00,A,D*7B
$GNGNS,225812.00,3617.55799,N,09718.50320,W,DDD,20,0.6,323.0,-26.0,,*28
$GPGNS,225812.00,,,,,,7,,,,3.2,138*4F
$GLGNS,225812.00,,,,,,8,,,,0.0,138*5D
$BDGNS,225812.00,,,,,,1,,,,0.0,138*59
$GPGGA,225813.00,3617.55800337,N,09718.50319219,W,2,20,0.6,323.047,M,-25.964,M,5.0,0138*78
$PTNL,GGK,225813.00,031016,3617.55800337,N,09718.50319219,W,5,20,1.3,EHT297.083,M*69
$GNGST,225813.00,14.775,0.408,0.362,51.5,0.381,0.391,1.032*4D
$GPZDA,225813.05,10,03,2016,00,00*6B
$GNGSA,A,3,8,9,23,27,7,28,30,,,,,,1.3,0.6,1.1*13
$GNGSA,A,3,51,48,,,,,,,,,,,1.3,0.6,1.1*20
$GNGSA,A,3,79,69,88,68,70,78,81,87,,,,,1.3,0.6,1.1*29
$GNGSA,A,3,114,,,,,,,,,,,,1.3,0.6,1.1*1C
$GPRMC,225813.00,A,3617.55800337,N,09718.50319219,W,0.047,309.311,100316,999.9000,E,D*1D
$GPGLL,3617.55800337,N,09718.50319219,W,225813.00,A,D*7E
$GNGNS,225813.00,3617.55800,N,09718.50319,W,DDD,20,0.6,323.0,-26.0,,*2C
$GPGNS,225813.00,,,,,,7,,,,4.2,138*49
$GLGNS,225813.00,,,,,,8,,,,0.0,138*5C
$BDGNS,225813.00,,,,,,1,,,,0.0,138*58
$GPGGA,225814.00,3617.55800936,N,09718.50319477,W,2,20,0.6,323.089,M,-25.964,M,6.0,0138*7B
$PTNL,GGK,225814.00,031016,3617.55800936,N,09718.50319477,W,5,20,1.3,EHT297.125,M*66
$GNGST,225814.00,14.712,0.411,0.365,51.3,0.384,0.394,1.038*48
$GPZDA,225814.05,10,03,2016,00,00*6C
$GNGSA,A,3,8,9,23,27,7,28,30,,,,,,1.3,0.6,1.1*13
$GNGSA,A,3,51,48,,,,,,,,,,,1.3,0.6,1.1*20
$GNGSA,A,3,79,69,88,68,70,78,81,87,,,,,1.3,0.6,1.1*29
$GNGSA,A,3,114,,,,,,,,,,,,1.3,0.6,1.1*1C
$GPRMC,225814.00,A,3617.55800936,N,09718.50319477,W,0.093,289.667,100316,999.9000,E,D*1B
$GPGLL,3617.55800936,N,09718.50319477,W,225814.00,A,D*7C
$GNGNS,225814.00,3617.55801,N,09718.50319,W,DDD,20,0.6,323.1,-26.0,,*2B
$GPGNS,225814.00,,,,,,7,,,,5.2,138*4F
$GLGNS,225814.00,,,,,,8,,,,0.0,138*5B
$BDGNS,225814.00,,,,,,1,,,,0.0,138*5F
$GPGGA,225815.00,3617.55797094,N,09718.50327283,W,2,20,0.6,323.061,M,-25.964,M,7.0,0138*7D
$PTNL,GGK,225815.00,031016,3617.55797094,N,09718.50327283,W,5,20,1.3,EHT297.097,M*6F
$GNGST,225815.00,14.641,0.393,0.366,58.3,0.374,0.386,0.963*43
$GPZDA,225815.05,10,03,2016,00,00*6D
$GNGSA,A,3,8,9,23,27,7,28,30,,,,,,1.3,0.6,1.1*13
$GNGSA,A,3,51,48,,,,,,,,,,,1.3,0.6,1.1*20
$GNGSA,A,3,79,69,88,68,70,78,81,87,,,,,1.3,0.6,1.1*29
$GNGSA,A,3,114,,,,,,,,,,,,1.3,0.6,1.1*1C
$GPRMC,225815.00,A,3617.55797094,N,09718.50327283,W,0.055,317.774,100316,999.9000,E,D*15
$GPGLL,3617.55797094,N,09718.50327283,W,225815.00,A,D*7D
$GNGNS,225815.00,3617.55797,N,09718.50327,W,DDD,20,0.6,323.1,-26.0,,*27
$GPGNS,225815.00,,,,,,7,,,,6.0,138*4F
$GLGNS,225815.00,,,,,,8,,,,0.0,138*5A
$BDGNS,225815.00,,,,,,1,,,,0.0,138*5E
$GPGGA,225816.00,3617.55794389,N,09718.50332594,W,2,21,0.6,323.003,M,-25.964,M,7.0,0138*72
$PTNL,GGK,225816.00,031016,3617.55794389,N,09718.50332594,W,5,21,1.2,EHT297.039,M*61
$GNGST,225816.00,70.569,0.389,0.362,56.0,0.370,0.381,0.938*44
$GPZDA,225816.05,10,03,2016,00,00*6E
$GNGSA,A,3,8,9,23,27,7,28,30,16,,,,,1.2,0.6,1.0*14
$GNGSA,A,3,51,48,,,,,,,,,,,1.2,0.6,1.0*20
$GNGSA,A,3,79,69,88,68,70,78,81,87,,,,,1.2,0.6,1.0*29
$GNGSA,A,3,114,,,,,,,,,,,,1.2,0.6,1.0*1C
$GPRMC,225816.00,A,3617.55794389,N,09718.50332594,W,0.086,284.243,100316,999.9000,E,D*1B
$GPGLL,3617.55794389,N,09718.50332594,W,225816.00,A,D*77
$GNGNS,225816.00,3617.55794,N,09718.50333,W,DDD,21,0.6,323.0,-26.0,,*22
$GPGNS,225816.00,,,,,,8,,,,4.8,138*49
$GLGNS,225816.00,,,,,,8,,,,0.0,138*59
$BDGNS,225816.00,,,,,,1,,,,0.0,138*5D
$GPGGA,225817.00,3617.55793387,N,09718.50336636,W,2,20,0.6,322.983,M,-25.964,M,7.0,0138*74
$PTNL,GGK,225817.00,031016,3617.55793387,N,09718.50336636,W,5,20,1.3,EHT297.019,M*64
$GNGST,225817.00,14.534,0.392,0.358,58.8,0.368,0.383,0.946*48
$GPZDA,225817.05,10,03,2016,00,00*6F
$GNGSA,A,3,8,9,23,27,7,28,30,,,,,,1.3,0.6,1.1*13
$GNGSA,A,3,51,48,,,,,,,,,,,1.3,0.6,1.1*20
$GNGSA,A,3,79,69,88,68,70,78,81,87,,,,,1.3,0.6,1.1*29
$GNGSA,A,3,114,,,,,,,,,,,,1.3,0.6,1.1*1C
$GPRMC,225817.00,A,3617.55793387,N,09718.50336636,W,0.078,304.802,100316,999.9000,E,D*1B
$GPGLL,3617.55793387,N,09718.50336636,W,225817.00,A,D*70
$GNGNS,225817.00,3617.55793,N,09718.50337,W,DDD,20,0.6,323.0,-26.0,,*21
$GPGNS,225817.00,,,,,,7,,,,4.6,138*49
$GLGNS,225817.00,,,,,,8,,,,0.0,138*58
$BDGNS,225817.00,,,,,,1,,,,0.0,138*5C
$GPGGA,225818.00,3617.55792559,N,09718.50340032,W,2,20,0.6,323.003,M,-25.964,M,4.0,0138*7F
$PTNL,GGK,225818.00,031016,3617.55792559,N,09718.50340032,W,5,20,1.3,EHT297.039,M*6E
$GNGST,225818.00,14.503,0.385,0.358,58.2,0.366,0.378,0.948*4B
$GPZDA,225818.05,10,03,2016,00,00*60
$GNGSA,A,3,8,9,23,27,7,28,30,,,,,,1.3,0.6,1.1*13
$GNGSA,A,3,51,48,,,,,,,,,,,1.3,0.6,1.1*20
$GNGSA,A,3,79,69,88,68,70,78,81,87,,,,,1.3,0.6,1.1*29
$GNGSA,A,3,114,,,,,,,,,,,,1.3,0.6,1.1*1C
$GPRMC,225818.00,A,3617.55792559,N,09718.50340032,W,0.059,277.599,100316,999.9000,E,D*1A
$GPGLL,3617.55792559,N,09718.50340032,W,225818.00,A,D*78
$GNGNS,225818.00,3617.55793,N,09718.50340,W,DDD,20,0.6,323.0,-26.0,,*2E
$GPGNS,225818.00,,,,,,7,,,,3.0,138*47
$GLGNS,225818.00,,,,,,8,,,,0.0,138*57
$BDGNS,225818.00,,,,,,1,,,,0.0,138*53
$GPGGA,225819.00,3617.55795495,N,09718.50338233,W,2,21,0.6,323.050,M,-25.964,M,5.0,0138*72
$PTNL,GGK,225819.00,031016,3617.55795495,N,09718.50338233,W,5,21,1.2,EHT297.087,M*60
$GNGST,225819.00,75.434,0.361,0.338,151.0,0.356,0.343,0.936*7C
$GPZDA,225819.05,10,03,2016,00,00*61
$GNGSA,A,3,8,9,23,27,7,28,30,16,,,,,1.2,0.6,1.0*14
$GNGSA,A,3,51,48,,,,,,,,,,,1.2,0.6,1.0*20
$GNGSA,A,3,79,69,88,68,70,78,81,87,,,,,1.2,0.6,1.0*29
$GNGSA,A,3,114,,,,,,,,,,,,1.2,0.6,1.0*1C
$GPRMC,225819.00,A,3617.55795495,N,09718.50338233,W,0.090,290.025,100316,999.9000,E,D*1F
$GPGLL,3617.55795495,N,09718.50338233,W,225819.00,A,D*73
$GNGNS,225819.00,3617.55795,N,09718.50338,W,DDD,21,0.6,323.1,-26.0,,*26
$GPGNS,225819.00,,,,,,8,,,,4.0,138*4E
$GLGNS,225819.00,,,,,,8,,,,0.0,138*56
$BDGNS,225819.00,,,,,,1,,,,0.0,138*52
$GPGGA,225820.00,3617.55795545,N,09718.50342858,W,2,20,0.6,323.068,M,-25.964,M,6.0,0138*77
$PTNL,GGK,225820.00,031016,3617.55795545,N,09718.50342858,W,5,20,1.3,EHT297.104,M*66
$GNGST,225820.00,14.479,0.364,0.331,146.7,0.354,0.341,0.914*75
$GPZDA,225820.05,10,03,2016,00,00*6B
$GNGSA,A,3,8,9,23,27,7,28,30,,,,,,1.3,0.6,1.1*13
$GNGSA,A,3,51,48,,,,,,,,,,,1.3,0.6,1.1*20
$GNGSA,A,3,79,69,88,68,70,78,81,87,,,,,1.3,0.6,1.1*29
$GNGSA,A,3,114,,,,,,,,,,,,1.3,0.6,1.1*1C
$GPRMC,225820.00,A,3617.55795545,N,09718.50342858,W,0.738,245.420,100316,999.9000,E,D*1F
$GPGLL,3617.55795545,N,09718.50342858,W,225820.00,A,D*7F
$GNGNS,225820.00,3617.55796,N,09718.50343,W,DDD,20,0.6,323.1,-26.0,,*22
$GPGNS,225820.00,,,,,,7,,,,5.0,138*4A
$GLGNS,225820.00,,,,,,8,,,,0.0,138*5C
$BDGNS,225820.00,,,,,,1,,,,0.0,138*58
$GPGGA,225821.00,3617.55791470,N,09718.50371017,W,2,21,0.6,323.027,M,-25.964,M,7.0,0138*7D
$PTNL,GGK,225821.00,031016,3617.55791470,N,09718.50371017,W,5,21,1.2,EHT297.063,M*67
$GNGST,225821.00,14.860,0.374,0.308,150.8,0.359,0.325,0.844*78
$GPZDA,225821.05,10,03,2016,00,00*6A
$GNGSA,A,3,8,9,23,27,7,28,30,16,,,,,1.2,0.6,1.0*14
$GNGSA,A,3,51,48,,,,,,,,,,,1.2,0.6,1.0*20
$GNGSA,A,3,79,69,88,68,70,78,81,87,,,,,1.2,0.6,1.0*29
$GNGSA,A,3,114,,,,,,,,,,,,1.2,0.6,1.0*1C
$GPRMC,225821.00,A,3617.55791470,N,09718.50371017,W,1.130,270.092,100316,999.9000,E,D*1A
$GPGLL,3617.55791470,N,09718.50371017,W,225821.00,A,D*7E
$GNGNS,225821.00,3617.55791,N,09718.50371,W,DDD,21,0.6,323.0,-26.0,,*25
$GPGNS,225821.00,,,,,,8,,,,6.0,138*47
$GLGNS,225821.00,,,,,,8,,,,0.0,138*5D
$BDGNS,225821.00,,,,,,1,,,,0.0,138*59
$GPGGA,225822.00,3617.55783228,N,09718.50410927,W,2,21,0.6,323.128,M,-25.964,M,7.0,0138*72
$PTNL,GGK,225822.00,031016,3617.55783228,N,09718.50410927,W,5,21,1.2,EHT297.164,M*60
$GNGST,225822.00,13.645,0.370,0.290,153.2,0.355,0.308,0.774*77
$GPZDA,225822.05,10,03,2016,00,00*69
$GNGSA,A,3,8,9,23,27,7,28,30,16,,,,,1.2,0.6,1.0*14
$GNGSA,A,3,51,48,,,,,,,,,,,1.2,0.6,1.0*20
$GNGSA,A,3,79,69,88,68,70,78,81,87,,,,,1.2,0.6,1.0*29
$GNGSA,A,3,114,,,,,,,,,,,,1.2,0.6,1.0*1C
